wikidata_item,city,longitude,latitude,date,population,continent,country
Q1770,Tallinn,24.745,59.437222222,http://www.wikidata.org/.well-known/genid/7d256e312efe38e67a8f347cbc6f8fbe,457572,Europe,Estonia
Q649,Moscow,37.617777777,55.755833333,http://www.wikidata.org/.well-known/genid/7ea35d4504b835fc37b90f06a6e522af,12455682,Europe,Russia
Q5384,Kirov,49.65,58.6,http://www.wikidata.org/.well-known/genid/ba71b31360f267961ee857a65663e26f,471754,,Russia
Q31487,Kraków,19.937222222,50.061388888,http://www.wikidata.org/.well-known/genid/e13f4d4bb2771085ee06fb718122c734,804237,Europe,Poland
Q985531,Tulkarm,35.030833333,32.311111111,-45000-01-01T00:00:00Z,89759,,State of Palestine
Q5687,Jericho,35.463055555,31.856111111,-9600-01-01T00:00:00Z,23220,,State of Palestine
Q1524,Athens,23.728055555,37.984166666,-7000-01-01T00:00:00Z,643452,Europe,Greece
Q41183,Aleppo,37.16,36.2,-5000-01-01T00:00:00Z,2003671,,Syria
Q11360899,Anantnag,75.15,33.73,-5000-01-01T00:00:00Z,108505,,India
Q1218,Jerusalem,35.225555555,31.778888888,-4000-01-01T00:00:00Z,936425,Asia,Israel
Q1218,Jerusalem,35.225555555,31.778888888,-4000-01-01T00:00:00Z,936425,Asia,Jordan
Q1218,Jerusalem,35.225555555,31.778888888,-4000-01-01T00:00:00Z,936425,Asia,Byzantine Empire
Q1218,Jerusalem,35.225555555,31.778888888,-4000-01-01T00:00:00Z,936425,Asia,Ottoman Empire
Q1218,Jerusalem,35.225555555,31.778888888,-4000-01-01T00:00:00Z,936425,Asia,Judah
Q1218,Jerusalem,35.225555555,31.778888888,-4000-01-01T00:00:00Z,936425,Asia,Kingdom of Jerusalem
Q1218,Jerusalem,35.225555555,31.778888888,-4000-01-01T00:00:00Z,936425,Asia,Ayyubid dynasty
Q1218,Jerusalem,35.225555555,31.778888888,-4000-01-01T00:00:00Z,936425,Asia,Mandatory Palestine
Q1218,Jerusalem,35.225555555,31.778888888,-4000-01-01T00:00:00Z,936425,Asia,Mamluk Sultanate
Q1218,Jerusalem,35.225555555,31.778888888,-4000-01-01T00:00:00Z,936425,Asia,Hasmonean dynasty
Q1218,Jerusalem,35.225555555,31.778888888,-4000-01-01T00:00:00Z,936425,Asia,Occupied Enemy Territory Administration
Q1218,Jerusalem,35.225555555,31.778888888,-4000-01-01T00:00:00Z,936425,Asia,early Islamic period in Palestine
Q1218,Jerusalem,35.225555555,31.778888888,-4000-01-01T00:00:00Z,936425,Asia,Roman Palestine
Q180522,Aqaba,35.0,29.516666666,-3999-01-01T00:00:00Z,140000,,Jordan
Q152368,Beit She'an,35.498888888,32.496111111,-3999-01-01T00:00:00Z,18200,,Israel
Q75621,Salamiyah,37.053055555,35.011111111,-3499-01-01T00:00:00Z,110683,,Syria
Q68286,Horgen,8.5975,47.260833333,-3399-01-01T00:00:00Z,23319,Europe,Switzerland
Q29962,Asyut,31.171388888,27.186944444,-3099-01-01T00:00:00Z,389307,,Egypt
Q460736,Amedi,43.487,37.0919,-3000-01-01T00:00:00Z,11000,,Iraq
Q926426,Kozan,35.812347222,37.4507,-2999-01-01T00:00:00Z,130495,,Turkey
Q214495,Bamyan,67.816666666,34.816666666,-2799-01-01T00:00:00Z,100000,,Afghanistan
Q82070,Tyre,35.2,33.266666666,-2749-01-01T00:00:00Z,160000,,Lebanon
Q430776,Nazareth,35.29785,32.702102777,-2199-01-01T00:00:00Z,83400,,Israel
Q2884439,Bareq,41.9438889,18.9322222,-1999-01-01T00:00:00Z,75351,,Saudi Arabia
Q131301,Homs,36.716666666,34.733333333,-1999-01-01T00:00:00Z,775404,,Syria
Q27174,Najran,44.1322,17.4917,-1999-01-01T00:00:00Z,298288,,Saudi Arabia
Q12258,Sabadell,2.1075,41.548333333,-1799-01-01T00:00:00Z,218300,,Spain
Q43048,Rhodes,27.92,36.17,-1600-01-01T00:00:00Z,115490,Eurasia,Greece
Q47492,Gaza City,34.45,31.516666666,-1500-01-01T00:00:00Z,590481,Asia,State of Palestine
Q230104,Nakhchivan,45.412222222,39.208888888,-1499-01-01T00:00:00Z,95100,,Azerbaijan
Q126084,Acre,35.083888888,32.926111111,-1499-01-01T00:00:00Z,48900,,Israel
Q244232,Tabuk,36.578888888,28.397222222,-1499-01-01T00:00:00Z,886036,,Saudi Arabia
Q194165,Irbid,35.85,32.555555555,-1399-01-01T00:00:00Z,1911600,,Jordan
Q617,Padua,11.877777777,45.406388888,-1182-01-01T00:00:00Z,206496,,Italy
Q60956,Ashkelon,34.566388888,31.665833333,-0949-01-01T00:00:00Z,134454,,Israel
Q13378,Arezzo,11.878055555,43.463055555,-0900-01-01T00:00:00Z,96260,,Italy
Q35484,Medina,39.61,24.47,-0900-01-01T00:00:00Z,1411599,,Saudi Arabia
Q35484,Medina,39.61,24.47,-0900-01-01T00:00:00Z,1411599,,Muhammad in Medina
Q35484,Medina,39.61,24.47,-0900-01-01T00:00:00Z,1411599,,Umayyad Caliphate
Q35484,Medina,39.61,24.47,-0900-01-01T00:00:00Z,1411599,,Rashidun Caliphate
Q748832,Chios,26.1375,38.3725,-0899-01-01T00:00:00Z,27015,,Greece
Q13666,Messina,15.554166666,38.193611111,-0800-01-01T00:00:00Z,218786,,Italy
Q8471,Reggio Calabria,15.65,38.114438888,-0800-01-01T00:00:00Z,170951,,Italy
Q1953,Yerevan,44.514444444,40.181388888,-0781-01-01T00:00:00Z,1052754,,Armenia
Q220,Rome,12.482777777,41.893055555,-0752-04-13T00:00:00Z,2748109,Europe,Italy
Q13670,Syracuse,15.2875,37.069166666,-0732-01-01T00:00:00Z,116244,,Italy
Q6681,Crotone,17.116666666,39.083333333,-0709-01-01T00:00:00Z,58445,,Italy
Q13498,Taranto,17.243055555,40.471111111,-0705-01-01T00:00:00Z,188098,,Italy
Q569766,Shahrisabz,66.833333333,39.05,-0700-01-01T00:00:00Z,100300,,Uzbekistan
Q1143233,Olbia,31.9,46.7,-0700-01-01T00:00:00Z,15000,,Ukraine
Q79857,Konya,32.492138888,37.872769444,-0699-01-01T00:00:00Z,2232374,,Turkey
Q157065,Kerch,36.468055555,45.338611111,-0609-01-01T00:00:00Z,174365,,Russia
Q157065,Kerch,36.468055555,45.338611111,-0609-01-01T00:00:00Z,174365,,Ukraine
Q3579,Tripoli,13.18746,32.87519,-0601-01-01T00:00:00Z,1293016,,Libya
Q158491,Feodosiia,35.379166666,45.048888888,-0600-01-01T00:00:00Z,86400,,Ukraine
Q43332,Pompeii,14.489722,40.750556,-0600-01-01T00:00:00Z,0,,Italy
Q1169725,Doriskos,26.11805556,40.86694444,-0600-01-01T00:00:00Z,490,,Greece
Q490,Milan,9.19,45.466944444,-0599-01-01T00:00:00Z,1354196,Europe,Italy
Q23482,Marseille,5.376388888,43.296666666,-0599-01-01T00:00:00Z,873076,,France
Q13678,Agrigento,13.575,37.3125,-0579-01-01T00:00:00Z,55512,,Italy
Q6506,Varna,27.91108,43.211375,-0574-01-01T00:00:00Z,371226,,Bulgaria
Q2028,Verona,10.992777777,45.438611111,-0549-01-01T00:00:00Z,255588,,Italy
Q486195,Khiva,60.361111111,41.381388888,-0501-01-01T00:00:00Z,105300,,Uzbekistan
Q1013454,Julfa,45.630833333,38.955833333,-0501-01-01T00:00:00Z,12500,,Azerbaijan
Q10509,Elche,-0.698333333,38.266944444,-0500-01-01T00:00:00Z,238293,,Spain
Q1353,Delhi,77.216666666,28.666666666,-0500-01-01T00:00:00Z,26495000,Asia,India
Q1479,Bordeaux,-0.579444444,44.837777777,-0500-01-01T00:00:00Z,261804,,France
Q491879,Termez,67.278333333,37.224166666,-0497-01-01T00:00:00Z,136200,,Uzbekistan
Q16666,Nanjing,118.778888888,32.060833333,-0494-01-01T00:00:00Z,9314685,Asia,People's Republic of China
Q466027,Yanbu,38.4073857,24.0444929,-0490-01-01T00:00:00Z,298675,,Saudi Arabia
Q126148,Tangier,-5.803888888,35.776666666,-0401-01-01T00:00:00Z,947952,,Morocco
Q6231,Cremona,10.024722222,45.133333333,-0399-01-01T00:00:00Z,70637,,Italy
Q3415,Ancona,13.516666666,43.616666666,-0386-01-01T00:00:00Z,98356,,Italy
Q3370,Zadar,15.2355,44.117,-0383-01-01T00:00:00Z,70779,,Croatia
Q87,Alexandria,29.8925,31.1975,-0330-01-01T00:00:00Z,4870000,Africa,Egypt
Q17151,Thessaloniki,22.935555555,40.640277777,-0314-01-01T00:00:00Z,309617,,Greece
Q170244,Berat,19.949673,40.704939,-0313-01-01T00:00:00Z,36496,,Albania
Q30002,Chengdu,104.063333333,30.66,-0310-01-01T00:00:00Z,20937757,,People's Republic of China
Q1190403,Edessa,38.783961111,37.145655555,-0301-01-01T00:00:00Z,55000,,Turkey
Q172415,Kutaisi,42.7,42.25,-0300-01-01T00:00:00Z,147900,,Georgia
Q90,Paris,2.352222222,48.856666666,-0300-01-01T00:00:00Z,2145906,Europe,France
Q180918,Paphos,32.42651039,34.77612852,-0299-01-01T00:00:00Z,35961,,Cyprus
Q13369,Rimini,12.568333333,44.059444444,-0267-01-01T00:00:00Z,149211,,Italy
Q11959,Alicante,-0.483055555,38.345277777,-0230-01-01T00:00:00Z,349282,,Spain
Q13367,Forlì,12.040833333,44.2225,-0186-01-01T00:00:00Z,116440,,Italy
Q192541,Ctesiphon,44.580833,33.093611,-0120-01-01T00:00:00Z,500000,,Iraq
Q75026,Fushun,123.89173,41.87085,-0107-01-01T00:00:00Z,1861372,,People's Republic of China
Q1741,Vienna,16.3725,48.208333333,-0100-01-01T00:00:00Z,1973403,Europe,Austria
Q3852,Worms,8.365277777,49.631944444,-0100-01-01T00:00:00Z,84646,,Germany
Q24001084,Girona City,2.82493,41.98311,-0078-01-01T00:00:00Z,100231,,Spain
Q3138,Trier,6.63935,49.75565,-0015-01-01T00:00:00Z,112195,,Germany
Q2749,Augsburg,10.897777777,48.368888888,-0014-01-01T00:00:00Z,301033,,Germany
Q319242,Caesarea Maritima,34.8923,32.5011,-0012-01-01T00:00:00Z,5343,,Israel
Q319242,Caesarea Maritima,34.8923,32.5011,-0012-01-01T00:00:00Z,5343,,Mandatory Palestine
Q319242,Caesarea Maritima,34.8923,32.5011,-0012-01-01T00:00:00Z,5343,,Ancient Rome
Q1720,Mainz,8.273611111,49.999444444,-0011-01-01T00:00:00Z,220552,,Germany
Q6602,Strasbourg,7.752222222,48.573333333,-0011-01-01T00:00:00Z,291313,,France
Q350,Cambridge,0.1225,52.208055555,0001-01-01T00:00:00Z,123867,,United Kingdom
Q189305,Kyustendil,22.687015,42.279668,0001-01-01T00:00:00Z,61566,,Bulgaria
Q587085,Ilorin,4.55,8.5,0018-01-01T00:00:00Z,847582,Africa,Nigeria
Q151920,Tiberias,35.524722222,32.789722222,0020-01-01T00:00:00Z,44200,,Israel
Q22889,Bath,-2.358611,51.381389,0043-01-01T00:00:00Z,94092,,United Kingdom
Q84,London,-0.1275,51.507222222,0047-01-01T00:00:00Z,8799728,Europe,United Kingdom
Q42462,York,-1.083333333,53.95,0071-01-01T00:00:00Z,208400,,United Kingdom
Q170263,Chester,-2.883333333,53.2,0079-01-01T00:00:00Z,87507,,United Kingdom
Q1794,Frankfurt,8.682222222,50.110555555,0100-01-01T00:00:00Z,773068,Europe,Germany
Q43387,Edirne,26.57361,41.67304,0101-01-01T00:00:00Z,180327,,Turkey
Q6829,Speyer,8.433615,49.3165553,0150-01-01T00:00:00Z,51368,Europe,Germany
Q1425428,Newcastle upon Tyne,-1.613333333,54.977777777,0200-01-01T00:00:00Z,300196,,United Kingdom
Q72,Zürich,8.541111111,47.374444444,0200-01-01T00:00:00Z,447082,Europe,Switzerland
Q40738,Bursa,29.080538888,40.191330555,0202-01-01T00:00:00Z,2901396,,Turkey
Q283368,Raqqa,39.01,35.95,0244-01-01T00:00:00Z,299824,,Syria
Q68695,Quanzhou,118.58583,24.91389,0260-01-01T00:00:00Z,8782285,,People's Republic of China
Q1848,San Marino,12.44845,43.932011111,0301-01-01T00:00:00Z,4040,Europe,San Marino
Q429059,Dvin,44.578333333,40.004444444,0335-01-01T00:00:00Z,1190,,Armenia
Q429059,Dvin,44.578333333,40.004444444,0335-01-01T00:00:00Z,1190,,Persarmenia
Q429059,Dvin,44.578333333,40.004444444,0335-01-01T00:00:00Z,1190,,Sasanian Armenia
Q16130,Merzig,6.63125,49.447119444,0369-01-01T00:00:00Z,30051,,Germany
Q848638,Turkistan,68.269166666,43.301944444,0401-01-01T00:00:00Z,227098,,Kazakhstan
Q641,Venice,12.331944444,45.439722222,0421-03-26T00:00:00Z,250369,,Italy
Q131416,Derbent,48.288888888,42.057777777,0438-01-01T00:00:00Z,124953,,Russia
Q994,Tbilisi,44.7925,41.7225,0455-01-01T00:00:00Z,1118035,Europe,Georgia
Q205050,Geilenkirchen,6.119444444,50.965277777,0501-01-01T00:00:00Z,28252,,Germany
Q182640,Ta'if,40.416666666,21.266666666,0501-01-01T00:00:00Z,579970,,Saudi Arabia
Q41262,Nottingham,-1.149166666,52.955,0600-01-01T00:00:00Z,289301,,United Kingdom
Q43475,Derby,-1.476666666,52.921666666,0600-01-01T00:00:00Z,255394,Europe,United Kingdom
Q23436,Edinburgh,-3.189166666,55.953333333,0601-01-01T00:00:00Z,488050,Europe,United Kingdom
Q185345,Poti,41.666666666,42.15,0601-01-01T00:00:00Z,41500,,Georgia
Q2256,Birmingham,-1.9025,52.48,0601-01-01T00:00:00Z,1137100,,United Kingdom
Q5869,Lhasa,91.1408186,29.6457567,0633-01-01T00:00:00Z,867891,,People's Republic of China
Q48195,Basra,47.81,30.515,0638-01-01T00:00:00Z,1326564,,Iraq
Q81788,Giza,31.2118,29.987,0642-01-01T00:00:00Z,5598402,,Egypt
Q131290,Ganja,46.360555555,40.682777777,0660-01-01T00:00:00Z,331400,,Azerbaijan
Q37792,Sint-Truiden,5.183333333,50.816666666,0693-01-01T00:00:00Z,40672,,Belgium
Q1722,Dubrovnik,18.108333333,42.640277777,0700-01-01T00:00:00Z,41562,,Croatia
Q58780,Hasselt,5.338497222,50.930480555,0700-01-01T00:00:00Z,77651,,Belgium
Q640453,Myślibórz,14.866666666,52.925,0700-01-01T00:00:00Z,10649,,Poland
Q539645,Leutkirch im Allgäu,10.022222222,47.825555555,0700-01-01T00:00:00Z,23345,,Germany
Q155984,Saalfeld,11.354166666,50.650555555,0700-01-01T00:00:00Z,29224,,Germany
Q42448,Sheffield,-1.470277777,53.380833333,0701-01-01T00:00:00Z,518090,,United Kingdom
Q25607,St. Gallen,9.377222222,47.423333333,0720-01-01T00:00:00Z,75833,Europe,Switzerland
Q1903,Catania,15.087269444,37.502669444,0729-01-01T00:00:00Z,311584,,Italy
Q1729,Erfurt,11.028888888,50.978055555,0742-01-01T00:00:00Z,214969,,Germany
Q1530,Baghdad,44.366111111,33.315277777,0762-01-01T00:00:00Z,8126755,Asia,Iraq
Q2916,Osnabrück,8.043055555,52.278888888,0780-01-01T00:00:00Z,167366,,Germany
Q80985,Fez,-5.003333333,34.043333333,0789-01-01T00:00:00Z,1112072,,Morocco
Q3992,Liège,5.570555555,50.639722222,0800-01-01T00:00:00Z,195278,,Belgium
Q230818,Leh,77.584722222,34.164166666,0800-01-01T00:00:00Z,30870,,India
Q1085,Prague,14.421388888,50.0875,0800-01-01T00:00:00Z,1384732,Europe,Czech Republic
Q25319,Aarhus,10.209722222,56.156388888,0800-01-01T00:00:00Z,290598,,Denmark
Q1015752,Konibodom,70.416666666,40.283333333,0801-01-01T00:00:00Z,54400,,Tajikistan
Q131128,Braunau am Inn,13.033333333,48.258333333,0810-01-01T00:00:00Z,17095,,Austria
Q26397,Nitra,18.0875,48.314722222,0826-01-01T00:00:00Z,77610,,Slovakia
Q1761,Dublin,-6.260277777,53.349722222,0841-01-01T00:00:00Z,592713,Europe,Republic of Ireland
Q2235,Veliky Novgorod,31.27579,58.52099,0859-01-01T00:00:00Z,224286,,Russia
Q2773,Brunswick,10.521111111,52.269166666,0861-01-01T00:00:00Z,251804,,Germany
Q81905,Eislingen/Fils,9.706666666,48.693333333,0861-01-01T00:00:00Z,21745,,Germany
Q2337,Smolensk,32.045277777,54.782777777,0863-01-01T00:00:00Z,312896,,Russia
Q15679,Badajoz,-6.970609,38.87789,0875-01-01T00:00:00Z,150190,,Spain
Q14945,Merseburg,11.992777777,51.354444444,0881-01-01T00:00:00Z,34335,,Germany
Q1295,Dortmund,7.465277777,51.513888888,0882-01-01T00:00:00Z,593317,,Germany
Q156713,Zhytomyr,28.657777777,50.254444444,0884-01-01T00:00:00Z,261624,,Ukraine
Q209009,Telavi,45.483333333,41.916666666,0893-01-01T00:00:00Z,19509,,Georgia
Q1863,Andorra la Vella,1.5,42.5,0900-01-01T00:00:00Z,24042,,Andorra
Q2214,Pskov,28.333333333,57.816666666,0903-01-01T00:00:00Z,189315,,Russia
Q1780,Bratislava,17.112777777,48.144722222,0907-01-01T00:00:00Z,475503,,Slovakia
Q42125,Yeosu,127.662163,34.760689,0940-01-01T00:00:00Z,273761,,South Korea
Q3561,Algiers,3.058611111,36.776388888,0944-01-01T00:00:00Z,3415811,,Algeria
Q106681,Włocławek,19.05,52.65,0950-01-01T00:00:00Z,104705,,Poland
Q157835,Zaporizhzhia,35.1175,47.85,0952-01-01T00:00:00Z,710052,Europe,Ukraine
Q45797,Dunkirk,2.376388888,51.037777777,0960-01-01T00:00:00Z,86788,,France
Q1842,Luxembourg,6.132777777,49.610555555,0963-01-01T00:00:00Z,134697,Europe,Luxembourg
Q85,Cairo,31.235833333,30.044444444,0969-07-11T00:00:00Z,9606916,Africa,Egypt
Q102217,Vitebsk,30.166666666,55.183333333,0974-01-01T00:00:00Z,358395,,Belarus
Q722732,Litomyšl,16.310576465,49.872064383,0981-01-01T00:00:00Z,10493,,Czech Republic
Q126269,Wolverhampton,-2.125277777,52.584166666,0985-01-01T00:00:00Z,250970,,United Kingdom
Q2801,Bryansk,34.366666666,53.2425,0985-01-01T00:00:00Z,399579,,Russia
Q2684,Vladimir,40.405833333,56.128611111,0990-01-01T00:00:00Z,352347,,Russia
Q3750,Gera,12.08242,50.87818,0995-01-01T00:00:00Z,93634,,Germany
Q986070,Chrudim,15.79563579,49.951136279,0995-01-01T00:00:00Z,23441,,Czech Republic
Q25804,Trondheim,10.4,63.44,0997-01-01T00:00:00Z,212660,,Norway
Q1792,Gdańsk,18.6540233,54.3482907,0997-01-01T00:00:00Z,486022,,Poland
Q34217,Oxford,-1.257777777,51.751944444,1000-01-01T00:00:00Z,152000,,United Kingdom
Q178835,Baalbek,36.208611111,34.006111111,1000-01-01T00:00:00Z,81052,,Lebanon
Q576368,Quneitra,35.823888888,33.125555555,1000-01-01T00:00:00Z,153,,Syria
Q105048,Słupsk,17.033333333,54.466666666,1000-01-01T00:00:00Z,87660,,Poland
Q110011,Kołobrzeg,15.576111111,54.176111111,1000-01-01T00:00:00Z,44340,,Poland
Q181376,Hrodna,23.816666666,53.666666666,1000-01-01T00:00:00Z,361115,,Belarus
Q503208,Neusäß,10.833333333,48.4,1000-01-01T00:00:00Z,22872,,Germany
Q14835,Bautzen,14.423888888,51.181388888,1002-01-01T00:00:00Z,38140,,Germany
Q3126,Erlangen,11.004444444,49.596388888,1002-01-01T00:00:00Z,116562,,Germany
Q130191,Norwich,1.292777777,52.628611111,1004-01-01T00:00:00Z,195971,,United Kingdom
Q900,Kazan,49.114444444,55.790833333,1005-01-01T00:00:00Z,1259173,Europe,Russia
Q895029,Boujad,-6.4,32.76,1008-01-01T00:00:00Z,46893,,Morocco
Q895029,Boujad,-6.3925,32.7741,1008-01-01T00:00:00Z,46893,,Morocco
Q1858,Hanoi,105.84117,21.0245,1010-01-01T00:00:00Z,8435650,Asia,Vietnam
Q2423,Yaroslavl,39.85,57.616666666,1010-01-01T00:00:00Z,570824,Europe,Russia
Q69345,Neuchâtel,6.930555555,46.990277777,1011-01-01T00:00:00Z,33475,,Switzerland
Q10661956,Sarpsborg,11.10962,59.28391,1016-01-01T00:00:00Z,54678,,Norway
Q81137,Olomouc,17.250833333,49.593888888,1017-01-01T00:00:00Z,102293,,Czech Republic
Q3050,Recklinghausen,7.2,51.616666666,1017-01-01T00:00:00Z,111734,,Germany
Q140147,Brest,23.656944444,52.084722222,1017-01-01T00:00:00Z,344470,,Belarus
Q15986,Naumburg,11.809819,51.152095,1028-01-01T00:00:00Z,32289,,Germany
Q148849,Żary,15.137222222,51.641944444,1030-01-01T00:00:00Z,36004,,Poland
Q721928,Jarosław,22.67776,50.01623,1031-01-01T00:00:00Z,36303,,Poland
Q37995,Yangon,96.16,16.795,1035-01-01T00:00:00Z,6874000,,Myanmar
Q41252,Bydgoszcz,18.0,53.116666666,1038-01-01T00:00:00Z,337666,,Poland
Q6225,Coventry,-1.516666666,52.416666666,1043-01-01T00:00:00Z,362690,,United Kingdom
Q585,Oslo,10.738888888,59.913333333,1048-01-01T00:00:00Z,709037,Europe,Norway
Q50992,Pobiedziska,17.267111111,52.477916666,1048-01-01T00:00:00Z,9755,,Poland
Q622841,Ghardaia,3.666666666,32.483333333,1048-01-01T00:00:00Z,120000,,Algeria
Q333661,Cahokia,-90.064444444,38.653888888,1050-01-01T00:00:00Z,20000,,United States of America
Q333661,Cahokia,-90.064444444,38.653888888,1050-01-01T00:00:00Z,20000,,Ramey state
Q487801,Barakaldo,-2.991666666,43.297222222,1051-01-01T00:00:00Z,101229,,Spain
Q156974,Ústí nad Labem,14.041666666,50.659166666,1056-01-01T00:00:00Z,91342,,Czech Republic
Q193965,Kamianets-Podilskyi,26.580555555,48.680555555,1062-01-01T00:00:00Z,100462,,Ukraine
Q500888,Akhalkalaki,43.486111111,41.405555555,1064-01-01T00:00:00Z,8295,,Georgia
Q14870,Siegburg,7.204444444,50.801388888,1064-01-01T00:00:00Z,42049,,Germany
Q325244,Rypin,19.406944444,53.066944444,1065-01-01T00:00:00Z,15832,,Poland
Q569804,Wyszogród,20.2,52.391666666,1065-01-01T00:00:00Z,2456,,Poland
Q101625,Marrakesh,-7.98108,31.62947,1065-01-01T00:00:00Z,966987,,Morocco
Q123511,Grudziądz,18.755,53.4875,1065-04-11T00:00:00Z,90890,,Poland
Q2942,Solingen,7.083333333,51.166666666,1067-01-01T00:00:00Z,160643,,Germany
Q25797,Žilina,18.733333333,49.216666666,1069-01-01T00:00:00Z,82656,,Slovakia
Q26793,Bergen,5.323333333,60.3925,1070-01-01T00:00:00Z,291189,Europe,Norway
Q193413,Rybinsk,38.833333333,58.05,1071-01-01T00:00:00Z,190429,,Russia
Q82858,Sigmaringen,9.216388888,48.086666666,1077-01-01T00:00:00Z,18375,,Germany
Q3806,Tübingen,9.055555555,48.52,1078-01-01T00:00:00Z,92811,,Germany
Q10690,Cardiff,-3.179166666,51.481666666,1081-01-01T00:00:00Z,361469,,United Kingdom
Q25411,Helsingborg,12.720996359,56.042411686,1085-01-01T00:00:00Z,113828,,Sweden
Q201812,Huddersfield,-1.779722222,53.645,1086-01-01T00:00:00Z,162949,,United Kingdom
Q13122,Dendermonde,4.0981,51.03123,1088-01-01T00:00:00Z,45673,,Belgium
Q515388,Yan'an,109.48628,36.59523,1089-01-01T00:00:00Z,2282581,,People's Republic of China
Q494521,Emmendingen,7.849166666,48.121388888,1091-01-01T00:00:00Z,28856,,Germany
Q6842,Kleve,6.14,51.79,1092-01-01T00:00:00Z,53388,,Germany
Q211645,Vranje,21.897222222,42.554166666,1093-01-01T00:00:00Z,55214,,Serbia
Q1435,Zagreb,15.977222222,45.813055555,1094-01-01T00:00:00Z,767131,,Croatia
Q2746,Ryazan,39.7425,54.63,1095-01-01T00:00:00Z,523203,Europe,Russia
Q204150,Pinsk,26.103055555,52.115277777,1097-01-01T00:00:00Z,124295,,Belarus
Q373804,Telč,15.452771068,49.184229941,1099-01-01T00:00:00Z,5185,,Czech Republic
Q27168,Randers,10.039166666,56.456944444,1100-01-01T00:00:00Z,62802,,Denmark
Q53742,Donauwörth,10.776988888,48.718430555,1100-01-01T00:00:00Z,19994,,Germany
Q9034853,Montfalcó Murallat,1.33956667,41.68881944,1100-01-01T00:00:00Z,18,,Spain
Q26345,Kalmar,16.365633333,56.664286111,1100-01-01T00:00:00Z,41852,,Sweden
Q243846,Hillah,44.433333333,32.483333333,1101-01-01T00:00:00Z,541034,,Iraq
Q503379,Skanderborg,9.933333333,56.033333333,1101-01-01T00:00:00Z,18659,,Denmark
Q485496,Shymkent,69.6,42.3,1101-01-01T00:00:00Z,1191877,Asia,Kazakhstan
Q128147,Kingston upon Hull,-0.3325,53.744444444,1101-01-01T00:00:00Z,260200,,United Kingdom
Q128147,Kingston upon Hull,-0.3325,53.744444444,1101-01-01T00:00:00Z,260200,,Kingdom of England
Q1281557,Zator,19.43777778,49.99583333,1101-01-01T00:00:00Z,3615,,Poland
Q3963,Fulda,9.6775,50.552777777,1101-01-01T00:00:00Z,69968,,Germany
Q7342,Oświęcim,19.221388888,50.038055555,1101-01-01T00:00:00Z,36956,,Poland
Q270704,Třebíč,15.881675935,49.2149674,1101-01-01T00:00:00Z,34797,,Czech Republic
Q19313,Barysaw,28.51198,54.22429,1102-01-01T00:00:00Z,135696,,Belarus
Q1922294,Tuchów,21.05,49.9,1105-01-01T00:00:00Z,6339,,Poland
Q1002670,Poniec,16.80867,51.76343,1108-01-01T00:00:00Z,2945,,Poland
Q1002670,Poniec,16.816666666,51.758333333,1108-01-01T00:00:00Z,2945,,Poland
Q988612,Wieleń,16.173611111,52.892222222,1108-01-01T00:00:00Z,5878,,Poland
Q213154,Aberystwyth,-4.066666666,52.416666666,1109-01-01T00:00:00Z,13040,,United Kingdom
Q3952,Plauen,12.138333333,50.495,1112-01-01T00:00:00Z,64763,,Germany
Q486985,Salzwedel,11.15,52.85,1112-01-01T00:00:00Z,23543,,Germany
Q93358,Oradea,21.921111111,47.072222222,1113-01-01T00:00:00Z,183105,,Romania
Q1005442,Otmuchów,17.175,50.466666666,1115-01-01T00:00:00Z,6360,,Poland
Q552477,Schlitz,9.55925,50.6759,1116-01-01T00:00:00Z,9892,,Germany
Q31926034,Zaragoza City,-0.877563649,41.654366145,1118-12-18T00:00:00Z,666880,Europe,Spain
Q31926034,Zaragoza City,-0.877563649,41.654366145,1118-12-18T00:00:00Z,666880,Europe,Kingdom of León
Q31926034,Zaragoza City,-0.877563649,41.654366145,1118-12-18T00:00:00Z,666880,Europe,Kingdom of Aragon
Q378821,Inowrocław,18.261111111,52.795833333,1120-01-01T00:00:00Z,69576,,Poland
Q527783,Stühlingen,8.445833333,47.745277777,1120-01-01T00:00:00Z,5527,,Germany
Q472621,Wieliczka,20.066111111,49.989444444,1123-01-01T00:00:00Z,26599,,Poland
Q129610,Galway,-9.0418,53.2729,1124-01-01T00:00:00Z,83456,,Republic of Ireland
Q142101,Kożuchów,15.6,51.75,1125-01-01T00:00:00Z,9086,,Poland
Q807271,Baranów Sandomierski,21.533333333,50.5,1135-01-01T00:00:00Z,1425,,Poland
Q2288,Tver,35.921927777,56.857827777,1135-01-01T00:00:00Z,424969,,Russia
Q31572,Al-Karak,35.7,31.183333333,1140-01-01T00:00:00Z,21678,,Jordan
Q82960,Rottweil,8.624722222,48.168055555,1140-01-01T00:00:00Z,25513,,Germany
Q3869,Marburg,8.766666666,50.816666666,1140-01-01T00:00:00Z,77845,,Germany
Q213242,Barcelos,-8.616666666,41.533333333,1140-01-01T00:00:00Z,120391,,Portugal
Q470380,Přerov,17.451111111,49.455555555,1141-01-01T00:00:00Z,41661,,Czech Republic
Q2678,Gomel,30.983333333,52.441666666,1142-01-01T00:00:00Z,501102,,Belarus
Q206933,Leiria,-8.806944444,39.743055555,1142-01-01T00:00:00Z,126897,,Portugal
Q161905,Leśna,15.266666666,51.023611111,1144-01-01T00:00:00Z,4203,,Poland
Q1015172,Sulejów,19.884722222,51.352777777,1145-01-01T00:00:00Z,6036,,Poland
Q3551,Rabat,-6.836111111,34.025277777,1146-01-01T00:00:00Z,572717,,Morocco
Q556312,Oettingen in Bayern,10.583333333,48.95,1147-01-01T00:00:00Z,5427,,Germany
Q4044,Offenburg,7.940833333,48.470833333,1148-01-01T00:00:00Z,61670,,Germany
Q423831,Akure,5.195,7.25,1150-01-01T00:00:00Z,847903,,Nigeria
Q120173666,Villamayor de Gállego,-0.7723,41.68584,1150-01-01T00:00:00Z,2866,,Spain
Q3874,Giessen,8.666666666,50.583333333,1152-01-01T00:00:00Z,94146,,Germany
Q23154,Bristol,-2.5975,51.453611111,1155-01-01T00:00:00Z,472465,,United Kingdom
Q321197,Cieszyn,18.633333333,49.75,1155-01-01T00:00:00Z,33958,Europe,Poland
Q242898,Jaisalmer,70.916666666,26.916666666,1156-01-01T00:00:00Z,65471,,India
Q36378,Fribourg,7.15,46.8,1157-01-01T00:00:00Z,38365,,Switzerland
Q23051,Swansea,-3.95,51.616666666,1158-01-01T00:00:00Z,245508,,United Kingdom
Q1726,Munich,11.575,48.1375,1158-01-01T00:00:00Z,1512491,Europe,Germany
Q985656,Kowary,15.833333333,50.791666666,1158-01-01T00:00:00Z,10217,,Poland
Q14887,Neumarkt in der Oberpfalz,11.466666666,49.283333333,1160-01-01T00:00:00Z,40808,,Germany
Q1709,Schwerin,11.415,53.628888888,1161-01-01T00:00:00Z,98596,,Germany
Q104407,Zgierz,19.406111111,51.856388888,1161-01-01T00:00:00Z,55079,,Poland
Q1000938,Toszek,18.5180604,50.4551063,1163-01-01T00:00:00Z,3557,,Poland
Q179948,Évora,-7.907222222,38.5725,1166-01-01T00:00:00Z,53577,,Portugal
Q1748,Copenhagen,12.568888888,55.676111111,1167-01-01T00:00:00Z,644431,,Kingdom of Denmark
Q494733,Gelnhausen,9.19055,50.202680555,1170-01-01T00:00:00Z,23679,,Germany
Q55868696,Teruel City,-1.10646,40.3456,1171-10-08T00:00:00Z,35691,,Spain
Q34267,Międzyrzec Podlaski,22.8,51.983333,1174-01-01T00:00:00Z,15830,,Poland
Q36405,Aberdeen,-2.1,57.15,1175-01-01T00:00:00Z,200680,,United Kingdom
Q158485,Siemianowice Śląskie,18.985833333,50.275833333,1178-01-01T00:00:00Z,64676,Europe,Poland
Q193719,Cheb,12.373995588,50.079759165,1179-01-01T00:00:00Z,32825,,Czech Republic
Q3012,Ulm,9.99155,48.39841,1181-01-01T00:00:00Z,128928,,Germany
Q9920,Haarlem,4.640555555,52.380277777,1185-01-01T00:00:00Z,162543,,Netherlands
Q2766547,'s-Hertogenbosch,5.316666666,51.7,1185-01-01T00:00:00Z,158753,,Netherlands
Q14819,Freiberg,13.342777777,50.911944444,1186-01-01T00:00:00Z,40485,,Germany
Q427385,Waidhofen an der Ybbs,14.77453,47.95964,1186-01-01T00:00:00Z,11333,,Austria
Q849026,Covilhã,-7.5,40.28333333,1186-01-01T00:00:00Z,51797,,Portugal
Q1754,Stockholm,18.068611111,59.329444444,1187-01-01T00:00:00Z,984748,Europe,Sweden
Q54356,Nyköping,17.018465817,58.758237101,1187-01-01T00:00:00Z,38780,,Sweden
Q73501,Bredevoort,6.616666666,51.95,1188-01-01T00:00:00Z,1539,,Netherlands
Q70,Bern,7.44743,46.94798,1191-01-01T00:00:00Z,134506,Europe,Switzerland
Q787968,Szydłów,21.002777777,50.590555555,1191-01-01T00:00:00Z,985,,Poland
Q988658,Połaniec,21.283333333,50.433333333,1191-01-01T00:00:00Z,7702,,Poland
Q83324,Sibiu,24.15,45.8,1191-01-01T00:00:00Z,134308,,Romania
Q126681,Sacavém,-9.10533,38.79442,1191-01-01T00:00:00Z,18469,,Portugal
Q1007342,Książ Wielkopolski,17.23952,52.06167,1193-01-01T00:00:00Z,2643,,Poland
Q983483,Gondomar,-8.533333333,41.15,1193-01-01T00:00:00Z,168027,,Portugal
Q207223,Drogheda,-6.3525,53.715,1194-01-01T00:00:00Z,40956,,Republic of Ireland
Q131612,Wiener Neustadt,16.25,47.816666666,1194-01-01T00:00:00Z,44461,,Austria
Q556352,Bad Pyrmont,9.263611111,51.986666666,1194-01-01T00:00:00Z,19604,,Germany
Q991895,Skaryszew,21.248611111,51.308888888,1198-01-01T00:00:00Z,4410,,Poland
Q387502,Świecie,18.4475,53.409444444,1198-01-01T00:00:00Z,24796,,Poland
Q474697,Tczew,18.786388888,54.091111111,1198-01-01T00:00:00Z,57990,,Poland
Q503146,Starogard Gdański,18.533333333,53.966666666,1198-01-01T00:00:00Z,46373,,Poland
Q4098,Greifswald,13.383333333,54.083333333,1199-01-01T00:00:00Z,59691,,Germany
Q5838,Kabul,69.165833333,34.532777777,1200-01-01T00:00:00Z,4273156,,Afghanistan
Q212546,Akhaltsikhe,42.986111,41.638889,1200-01-01T00:00:00Z,24570,,Georgia
Q190235,Horsens,9.851944444,55.861944444,1200-01-01T00:00:00Z,59449,,Denmark
Q616877,Louny,13.796762432,50.357078457,1200-01-01T00:00:00Z,18053,,Czech Republic
Q3004,Ingolstadt,11.425,48.763055555,1200-01-01T00:00:00Z,141029,,Germany
Q4037,Schwäbisch Gmünd,9.8,48.8,1200-01-01T00:00:00Z,62325,,Germany
Q17184273,Santa Fe,1.363668,41.699512,1200-01-01T00:00:00Z,29,,Spain
Q25732,Örebro,15.196522467,59.266926001,1200-01-01T00:00:00Z,126604,,Sweden
Q204475,Sombor,19.12,45.78,1200-01-01T00:00:00Z,51471,,Serbia
Q82917,Pfullendorf,9.256666666,47.924166666,1200-01-01T00:00:00Z,13616,,Germany
Q4024,Frankfurt (Oder),14.551666666,52.342083333,1201-01-01T00:00:00Z,58230,,Germany
Q7030,Wismar,11.465,53.8925,1201-01-01T00:00:00Z,43878,,Germany
Q7039,Lahr/Schwarzwald,7.872222222,48.339166666,1201-01-01T00:00:00Z,49074,,Germany
Q204709,Schiedam,4.4,51.916666666,1201-01-01T00:00:00Z,79279,,Netherlands
Q161893,Żukowo,18.360555555,54.345833333,1201-01-01T00:00:00Z,6652,,Poland
Q216,Vilnius,25.28,54.687222222,1201-01-01T00:00:00Z,581475,Europe,Lithuania
Q798,Assen,6.55,53.0,1201-01-01T00:00:00Z,68836,,Netherlands
Q52028,Chiang Mai,98.983333333,18.788888888,1201-01-01T00:00:00Z,1198000,,Thailand
Q3476,L'Aquila,13.391991666,42.354008333,1201-01-01T00:00:00Z,69558,,Italy
Q36600,The Hague,4.31,52.08,1201-01-01T00:00:00Z,548320,Europe,Netherlands
Q536826,Grabow,11.553129,53.279785,1201-01-01T00:00:00Z,5615,,Germany
Q572013,Penkun,14.25,53.3,1201-01-01T00:00:00Z,1815,,Germany
Q103892,Zabrze,18.783333333,50.3,1201-01-01T00:00:00Z,156935,,Poland
Q717942,Trzebnica,17.063055555,51.310555555,1201-01-01T00:00:00Z,13631,,Poland
Q2861,Rostock,12.133333333,54.083333333,1201-01-01T00:00:00Z,209920,,Germany
Q6931,Böblingen,9.0,48.683333,1201-01-01T00:00:00Z,51460,,Germany
Q50960,Demmin,13.043888888,53.905,1201-01-01T00:00:00Z,10395,,Germany
Q488513,Anklam,13.683333333,53.85,1201-01-01T00:00:00Z,12312,,Germany
Q492543,Wolgast,13.766666666,54.05,1201-01-01T00:00:00Z,12055,,Germany
Q493924,Pasewalk,13.98997,53.50627,1201-01-01T00:00:00Z,9811,,Germany
Q146820,Malbork,19.04435,54.02846,1201-01-01T00:00:00Z,37635,,Poland
Q156828,Bolesławiec,15.566666666,51.266666666,1201-01-01T00:00:00Z,37559,,Poland
Q156837,Kostrzyn nad Odrą,14.666666666,52.588333333,1201-01-01T00:00:00Z,17899,,Poland
Q231593,Nowy Targ,20.033333333,49.483333333,1201-01-01T00:00:00Z,33273,,Poland
Q324917,Brzeziny,19.75,51.8,1201-01-01T00:00:00Z,12117,,Poland
Q751123,Lidzbark Warmiński,20.583333333,54.116666666,1201-01-01T00:00:00Z,14878,,Poland
Q751123,Lidzbark Warmiński,20.57954,54.12588,1201-01-01T00:00:00Z,14878,,Poland
Q1000033,Lanškroun,16.61195451,49.912192261,1201-01-01T00:00:00Z,9849,,Czech Republic
Q426353,Lassan,13.833333333,53.933333333,1201-01-01T00:00:00Z,1491,,Germany
Q505147,Weil der Stadt,8.870555555,48.750833333,1201-01-01T00:00:00Z,19401,,Germany
Q506651,Wittenburg,11.066666666,53.5,1201-01-01T00:00:00Z,6400,,Germany
Q506665,Gadebusch,11.116666666,53.7,1201-01-01T00:00:00Z,5457,,Germany
Q507967,Bad Sülze,12.657777777,54.110277777,1201-01-01T00:00:00Z,1796,,Germany
Q517353,Grevesmühlen,11.19089,53.86446,1201-01-01T00:00:00Z,10538,,Germany
Q63986,Zofingen,7.94754,47.28836,1201-01-01T00:00:00Z,11655,,Switzerland
Q645748,Teterow,12.566666666,53.766666666,1201-01-01T00:00:00Z,8434,,Germany
Q645814,Kröpelin,11.783333333,54.066666666,1201-01-01T00:00:00Z,4829,,Germany
Q536634,Bützow,11.983333333,53.85,1201-01-01T00:00:00Z,8181,,Germany
Q536734,Gnoien,12.710277777,53.968611111,1201-01-01T00:00:00Z,2838,,Germany
Q536781,Dömitz,11.263333333,53.138333333,1201-01-01T00:00:00Z,2981,,Germany
Q536809,Schwaan,12.107222222,53.940277777,1201-01-01T00:00:00Z,5070,,Germany
Q540120,Neustadt-Glewe,11.588333333,53.379444444,1201-01-01T00:00:00Z,6931,,Germany
Q559014,Goldberg,12.066666666,53.566666666,1201-01-01T00:00:00Z,3364,,Germany
Q565624,Strasburg,13.75,53.5,1201-01-01T00:00:00Z,4451,,Germany
Q571954,Franzburg,12.877572,54.186968,1201-01-01T00:00:00Z,1367,,Germany
Q571963,Richtenberg,12.866666666,54.2,1201-01-01T00:00:00Z,1351,,Germany
Q571992,Grimmen,13.041388888,54.11,1201-01-01T00:00:00Z,9586,,Germany
Q572034,Eggesin,14.083333333,53.683333333,1201-01-01T00:00:00Z,4748,,Germany
Q572060,Tribsees,12.75,54.083333333,1201-01-01T00:00:00Z,2669,,Germany
Q20265,Röbel,12.606111111,53.376111111,1201-01-01T00:00:00Z,5075,,Germany
Q20291,Malchow,12.4333,53.4833,1201-01-01T00:00:00Z,6543,,Germany
Q20320,Mirow,12.8,53.266666666,1201-01-01T00:00:00Z,3887,,Germany
Q20329,Wesenberg,12.966666666,53.283333333,1201-01-01T00:00:00Z,3057,,Germany
Q29076,Usedom,13.916666666,53.866666666,1201-01-01T00:00:00Z,1725,,Germany
Q46009,Friedland,13.5397,53.659,1201-01-01T00:00:00Z,6478,,Germany
Q50945,Woldegk,13.582777777,53.459444444,1201-01-01T00:00:00Z,4196,,Germany
Q50957,Malchin,12.783333333,53.733333333,1201-01-01T00:00:00Z,7272,,Germany
Q50958,Neukalen,12.783333333,53.816666666,1201-01-01T00:00:00Z,1747,,Germany
Q50986,Stavenhagen,12.9,53.7,1201-01-01T00:00:00Z,5803,,Germany
Q53773,Altentreptow,13.2562,53.6927,1201-01-01T00:00:00Z,5263,,Germany
Q53887,Plau am See,12.2625,53.458055555,1201-01-01T00:00:00Z,6231,,Germany
Q157266,Sternberg,11.829305555,53.711694444,1201-01-01T00:00:00Z,4023,,Germany
Q160879,Boizenburg,10.723138888,53.374338888,1201-01-01T00:00:00Z,10829,,Germany
Q161943,Barth,12.716666666,54.366666666,1201-01-01T00:00:00Z,8777,,Germany
Q1773,Riga,24.106944444,56.9475,1201-01-01T00:00:00Z,605273,Europe,Latvia
Q387095,Ścinawa,16.425972222,51.416527777,1202-01-01T00:00:00Z,5356,,Poland
Q910997,Wyszków,21.4584,52.59278,1203-01-01T00:00:00Z,26349,Europe,Poland
Q492312,Hondarribia,-1.7914777,43.3624372,1203-04-25T00:00:00Z,16887,,Spain
Q3974,Landshut,12.150833333,48.539722222,1204-01-01T00:00:00Z,75457,,Germany
Q504681,Koknese,25.433333333,56.65,1205-01-01T00:00:00Z,2427,,Latvia
Q990651,Kozienice,21.551111111,51.585555555,1206-01-01T00:00:00Z,16192,,Poland
Q1731,Dresden,13.74,51.05,1206-01-01T00:00:00Z,563311,,Germany
Q107582,Cēsis,25.274722222,57.313055555,1206-01-01T00:00:00Z,14699,,Latvia
Q24826,Liverpool,-2.991944444,53.4075,1207-01-01T00:00:00Z,513441,,United Kingdom
Q465698,Sigulda,24.854444444,57.153888888,1207-01-01T00:00:00Z,14632,,Latvia
Q1642884,Muszyna,20.89718,49.35661,1209-01-01T00:00:00Z,4464,,Poland
Q559010,Parchim,11.848212396,53.4277155,1210-01-01T00:00:00Z,18278,,Germany
Q26175,Trnava,17.586211111,48.37775,1211-01-01T00:00:00Z,63803,,Slovakia
Q100188,Cluj-Napoca,23.559444444,46.78,1213-01-01T00:00:00Z,286598,,Romania
Q373720,Castelo Branco,-7.493055555,39.822777777,1213-01-01T00:00:00Z,56109,,Portugal
Q2112,Bielefeld,8.533333333,52.016666666,1214-01-01T00:00:00Z,338332,,Germany
Q1799,Wrocław,17.0325,51.11,1214-01-01T00:00:00Z,672929,,Poland
Q931022,Lubaczów,23.122991388,50.155600888,1214-01-01T00:00:00Z,11619,,Poland
Q987188,Lubawa,19.751666666,53.505,1216-01-01T00:00:00Z,10626,,Poland
Q52101,Middelburg,3.613611111,51.499722222,1217-01-01T00:00:00Z,49956,,Netherlands
Q92212,Opole,17.925277777,50.672222222,1217-01-01T00:00:00Z,127387,,Poland
Q101530,Wieluń,18.57,51.220555555,1217-01-01T00:00:00Z,21270,,Poland
Q158004,Piotrków Trybunalski,19.683333333,51.4,1217-01-01T00:00:00Z,68978,,Poland
Q183104,Feldkirch,9.598333333,47.238055555,1218-01-01T00:00:00Z,33420,,Austria
Q187544,Zell am Harmersbach,8.063888888,48.346666666,1218-01-01T00:00:00Z,8227,,Germany
Q68965,Solothurn,7.5375,47.208055555,1218-01-01T00:00:00Z,16777,Europe,Switzerland
Q509783,Neuenburg am Rhein,7.561944444,47.814722222,1219-01-01T00:00:00Z,12482,,Germany
Q16147,Güstrow,12.176388888,53.793888888,1219-01-01T00:00:00Z,29556,,Germany
Q62677,Karakorum,102.560555555,47.299166666,1220-01-01T00:00:00Z,9439,,Mongolia
Q688539,Rapperswil,8.82228,47.22557,1220-01-01T00:00:00Z,2618,Europe,Switzerland
Q7033,Nordhausen,10.791111111,51.505,1220-01-01T00:00:00Z,41339,,Germany
Q368929,Jindřichův Hradec,15.003024549,49.144110393,1220-01-01T00:00:00Z,20747,,Czech Republic
Q145292,Zalău,23.057222222,47.191111111,1220-01-01T00:00:00Z,52359,,Romania
Q992910,Sobótka,16.744444444,50.898611111,1221-01-01T00:00:00Z,7025,,Poland
Q891,Nizhny Novgorod,44.0075,56.326944444,1221-01-01T00:00:00Z,1213477,Europe,Russia
Q891,Nizhny Novgorod,44.0075,56.326944444,1221-01-01T00:00:00Z,1213477,Eurasia,Russia
Q659905,Mikołów,18.9041,50.17103,1222-01-01T00:00:00Z,41266,,Poland
Q1005359,Strumień,18.766666666,49.916666666,1223-01-01T00:00:00Z,3608,Europe,Poland
Q1005359,Strumień,18.76637,49.92103,1223-01-01T00:00:00Z,3608,Europe,Poland
Q156080,Opava,17.904444444,49.938055555,1224-01-01T00:00:00Z,55600,,Czech Republic
Q180139,Hradec Králové,15.831944444,50.209166666,1225-01-01T00:00:00Z,93906,,Czech Republic
Q717404,Olesno,18.416666666,50.875,1226-01-01T00:00:00Z,9122,,Poland
Q206988,Cheltenham,-2.078427777,51.896519444,1226-01-01T00:00:00Z,116447,,United Kingdom
Q179830,Jelgava,23.724444444,56.652222222,1226-01-01T00:00:00Z,54701,,Latvia
Q849116,Kremenets,25.7275,50.108055555,1227-01-01T00:00:00Z,20674,,Ukraine
Q7047,Bad Kreuznach,7.866944444,49.846944444,1227-01-01T00:00:00Z,52529,,Germany
Q149059,Rawa Mazowiecka,20.25,51.766666666,1228-01-01T00:00:00Z,16429,,Poland
Q161605,Czeladź,19.083333333,50.333333333,1228-01-01T00:00:00Z,30681,,Poland
Q38511,Turku,22.266666666,60.451388888,1229-01-01T00:00:00Z,202250,,Finland
Q158006,Jaworzno,19.275,50.2,1229-01-01T00:00:00Z,88998,,Poland
Q25409,Košice,21.25,48.716666666,1230-01-01T00:00:00Z,229040,Europe,Slovakia
Q186349,Târgu Mureș,24.559722222,46.549722222,1230-01-01T00:00:00Z,116033,,Romania
Q27119,Kolding,9.472222222,55.490833333,1231-01-01T00:00:00Z,58757,,Denmark
Q168905,Zbąszyń,15.917777777,52.253055555,1231-01-01T00:00:00Z,7209,,Poland
Q387117,Ślesin,18.3,52.366666666,1231-01-01T00:00:00Z,3179,,Poland
Q154897,Aabenraa,9.4195,55.0447,1231-01-01T00:00:00Z,15967,,Denmark
Q1310,Arnhem,5.916666666,51.983333333,1233-01-01T00:00:00Z,164096,,Netherlands
Q183111,Jihlava,15.590555555,49.400277777,1233-01-01T00:00:00Z,53986,,Czech Republic
Q326582,Kwidzyn,18.930833333,53.735833333,1233-01-01T00:00:00Z,37768,,Poland
Q207100,Ziębice,17.044444444,50.6,1234-01-01T00:00:00Z,8195,,Poland
Q1735,Innsbruck,11.393333333,47.268333333,1234-01-01T00:00:00Z,130585,,Austria
Q941844,Grodków,17.366666666,50.683333333,1234-01-01T00:00:00Z,8210,,Poland
Q941844,Grodków,17.38449,50.69836,1234-01-01T00:00:00Z,8210,,Poland
Q4065,Stralsund,13.081944444,54.309166666,1234-01-01T00:00:00Z,59363,,Germany
Q82174,Brașov,25.6,45.65,1234-01-01T00:00:00Z,237589,,Romania
Q47554,Toruń,18.6014,53.0144,1234-01-04T00:00:00Z,198273,,Poland
Q47554,Toruń,18.616666666,53.016666666,1234-01-04T00:00:00Z,198273,,Poland
Q387307,Środa Śląska,16.583333333,51.15,1235-01-01T00:00:00Z,9525,,Poland
Q794200,Beclean,24.179722222,47.179722222,1235-01-01T00:00:00Z,11260,,Romania
Q104712,Elbląg,19.408888888,54.152222222,1237-01-01T00:00:00Z,115220,,Poland
Q104725,Płock,19.7,52.55,1237-01-01T00:00:00Z,112483,,Poland
Q61480,Ełk,22.35,53.816666666,1237-01-01T00:00:00Z,60390,,Poland
Q193724,Slavkov u Brna,16.876504369,49.153275386,1237-01-01T00:00:00Z,7169,,Czech Republic
Q773227,Kęty,19.22333,49.88214,1238-01-01T00:00:00Z,18067,,Poland
Q52894,Obrzycko,16.529166666,52.706388888,1238-01-01T00:00:00Z,2379,,Poland
Q1021080,Lipník nad Bečvou,17.586338342,49.527549239,1238-01-01T00:00:00Z,7961,,Czech Republic
Q1355984,Iłża,21.23979,51.16313,1239-01-01T00:00:00Z,4478,,Poland
Q1355984,Iłża,21.25,51.166666666,1239-01-01T00:00:00Z,4478,,Poland
Q498540,Perleberg,11.866666666,53.066666666,1239-01-01T00:00:00Z,12108,,Germany
Q988593,Karlino,15.878611111,54.039166666,1240-01-01T00:00:00Z,5582,,Poland
Q3085,Reutlingen,9.216666666,48.483333333,1240-01-01T00:00:00Z,117547,,Germany
Q809585,Bartoszyce,20.80819,54.25354,1240-01-01T00:00:00Z,22281,,Poland
Q14274,Aarau,8.0446,47.3923,1240-01-01T00:00:00Z,21503,,Switzerland
Q986841,Reszel,21.14585,54.050419444,1241-01-01T00:00:00Z,4167,,Poland
Q161595,Mysłowice,19.133333333,50.233333333,1241-01-01T00:00:00Z,72553,,Poland
Q1707,Kiel,10.139444444,54.323333333,1242-01-01T00:00:00Z,247717,,Germany
Q14960,Brno,16.608333333,49.195277777,1243-01-01T00:00:00Z,400566,,Czech Republic
Q991998,Libiąż,19.316666666,50.116666666,1243-01-01T00:00:00Z,16385,,Poland
Q999632,Pakość,18.0853,52.80178,1243-01-01T00:00:00Z,5329,,Poland
Q999632,Pakość,18.083888888,52.805277777,1243-01-01T00:00:00Z,5329,,Poland
Q460925,Michalovce,21.918333333,48.7575,1244-01-01T00:00:00Z,36704,,Slovakia
Q64,Berlin,13.383333333,52.516666666,1244-01-01T00:00:00Z,3755251,Europe,Germany
Q324892,Staszów,21.166666666,50.560555555,1245-01-01T00:00:00Z,14158,,Poland
Q756598,Lipova,21.691388888,46.089444444,1245-01-01T00:00:00Z,10040,,Romania
Q690,Delft,4.359166666,52.011666666,1246-01-01T00:00:00Z,109435,,Netherlands
Q26119,Prešov,21.233333333,49.0,1247-01-01T00:00:00Z,84824,,Slovakia
Q489147,Schmalkalden,10.45,50.716666666,1247-01-01T00:00:00Z,20065,,Germany
Q3958,Neubrandenburg,13.260833333,53.556944444,1248-01-01T00:00:00Z,63989,,Germany
Q639241,Międzyrzecz,15.57801,52.44461,1248-01-01T00:00:00Z,17400,,Poland
Q411723,Aizpute,21.601666666,56.721111111,1248-01-01T00:00:00Z,3892,,Latvia
Q132278,Bad Windsheim,10.416666666,49.5,1248-01-01T00:00:00Z,12643,,Germany
Q717774,Namysłów,17.7167636,51.0767042,1249-01-01T00:00:00Z,16942,,Poland
Q2160056,Mogielnica,20.723055555,51.689722222,1249-01-01T00:00:00Z,2206,,Poland
Q2160056,Mogielnica,20.72227,51.69432,1249-01-01T00:00:00Z,2206,,Poland
Q26393,Poprad,20.3,49.05,1250-01-01T00:00:00Z,49855,,Slovakia
Q387396,Świdnica,16.48859,50.84378,1250-01-01T00:00:00Z,54792,,Poland
Q1001200,Prószków,17.871388888,50.576388888,1250-01-01T00:00:00Z,2544,,Poland
Q948267,Wilamowice,19.15,49.9,1250-01-01T00:00:00Z,3164,,Poland
Q15092,Castelló de la Plana,-0.037438888,39.985980555,1251-01-01T00:00:00Z,176238,,Spain
Q102365,Pärnu,24.498888888,58.384444444,1251-01-01T00:00:00Z,39605,,Estonia
Q850688,Chełmża,18.6,53.2,1251-01-01T00:00:00Z,14045,,Poland
Q3846983,Șimleu Silvaniei,22.8,47.23,1251-01-01T00:00:00Z,13948,,Romania
Q776965,Klaipėda,21.135,55.7125,1252-01-01T00:00:00Z,158420,,Lithuania
Q1587810,Rakoniewice,16.273055555,52.140833333,1252-01-01T00:00:00Z,3658,,Poland
Q324875,Radziejów,18.516666666,52.633333333,1252-01-01T00:00:00Z,5253,,Poland
Q21159,Husum,9.051111111,54.476944444,1252-01-01T00:00:00Z,23735,,Germany
Q158488,Piekary Śląskie,18.95,50.383333333,1253-01-01T00:00:00Z,53017,,Poland
Q385,Gdynia,18.54,54.5175,1253-01-01T00:00:00Z,245222,Europe,Poland
Q79322,Kluczbork,18.216666666,50.983333333,1253-01-01T00:00:00Z,22703,,Poland
Q1004290,Skuodas,21.533333333,56.266666666,1253-01-01T00:00:00Z,5346,,Lithuania
Q988574,Paczków,17.00658,50.46395,1254-01-01T00:00:00Z,6941,,Poland
Q9306,Eberswalde,13.833055555,52.833055555,1254-01-01T00:00:00Z,41461,,Germany
Q4126,Schweinfurt,10.233333333,50.05,1254-01-01T00:00:00Z,54675,,Germany
Q986984,Prudnik,17.579166666,50.319722222,1255-01-01T00:00:00Z,19747,,Poland
Q1829,Kaliningrad,20.5,54.716666666,1255-01-01T00:00:00Z,489735,,Russia
Q52896,Pniewy,16.266666666,52.516666666,1256-01-01T00:00:00Z,8161,,Poland
Q52902,Września,17.565,52.325,1256-01-01T00:00:00Z,31986,,Poland
Q324934,Kłobuck,18.93674,50.90081,1257-01-01T00:00:00Z,12513,,Poland
Q990779,Pyzdry,17.683333333,52.166666666,1257-01-01T00:00:00Z,3014,,Poland
Q990779,Pyzdry,17.69005,52.17056,1257-01-01T00:00:00Z,3014,,Poland
Q52829,Grodzisk Wielkopolski,16.366666666,52.233333333,1257-01-01T00:00:00Z,15131,,Poland
Q104302,Chorzów,18.9628,50.2884,1257-01-01T00:00:00Z,104193,Europe,Poland
Q104302,Chorzów,18.95,50.3,1257-01-01T00:00:00Z,104193,Europe,Poland
Q104731,Gorzów Wielkopolski,15.25,52.733333333,1257-01-01T00:00:00Z,119964,,Poland
Q1280257,Stary Sącz,20.63496,49.56364,1257-01-01T00:00:00Z,8746,,Poland
Q500260,Wodzisław Śląski,18.45,50.0,1257-01-01T00:00:00Z,45949,,Poland
Q182892,Polessk,21.1,54.866666666,1258-01-01T00:00:00Z,6954,,Russia
Q208022,Police,14.570833333,53.55,1260-01-01T00:00:00Z,30623,,Poland
Q320950,Trutnov,15.912798547,50.561045737,1260-01-01T00:00:00Z,29584,,Czech Republic
Q4346,Waren (Müritz),12.683333333,53.516666666,1260-01-01T00:00:00Z,21267,,Germany
Q988636,Witnica,14.891388888,52.677777777,1261-01-01T00:00:00Z,6524,,Poland
Q856772,Chiang Rai,99.8275,19.909444444,1262-01-01T00:00:00Z,70610,,Thailand
Q13972,Tartu,26.7225,58.38,1262-01-01T00:00:00Z,97524,,Estonia
Q95895695,Free Imperial City of Strasbourg,7.747222222,48.580555555,1262-03-15T00:00:00Z,48500,Europe,Holy Roman Empire
Q95895695,Free Imperial City of Strasbourg,7.747222222,48.580555555,1262-03-15T00:00:00Z,48500,Europe,Kingdom of France
Q44840,Viljandi,25.595555555,58.363333333,1263-01-01T00:00:00Z,17353,,Estonia
Q20314,Penzlin,13.083055555,53.505,1263-01-01T00:00:00Z,4094,,Germany
Q27001,Martin,18.921388888,49.063611111,1264-01-01T00:00:00Z,52520,Europe,Slovakia
Q106274,Legnica,16.1619,51.21006,1264-01-01T00:00:00Z,94878,,Poland
Q187205,Bistrița,24.483333333,47.133333333,1264-06-23T00:00:00Z,78877,,Romania
Q12996,Ostend,2.919444444,51.225833333,1265-01-01T00:00:00Z,71557,,Belgium
Q1013914,Polička,16.265478874,49.71467939,1265-01-01T00:00:00Z,8939,,Czech Republic
Q16506,České Budějovice,14.474722222,48.974722222,1265-07-01T00:00:00Z,97377,,Czech Republic
Q62868,Koszalin,16.181666666,54.190277777,1266-01-01T00:00:00Z,105883,,Poland
Q159457,Faro,-7.935,37.016111111,1266-01-01T00:00:00Z,64560,,Portugal
Q8385,Ostrava,18.2925,49.835555555,1267-01-01T00:00:00Z,284765,,Czech Republic
Q374465,Mediaș,24.350833333,46.163888888,1267-01-01T00:00:00Z,39505,,Romania
Q1280559,Skała,19.866666666,50.233333333,1267-01-01T00:00:00Z,3834,,Poland
Q387591,Świerzawa,15.895,51.013611111,1268-01-01T00:00:00Z,2111,,Poland
Q332952,Überlingen,9.165,47.766666666,1268-01-01T00:00:00Z,23098,,Germany
Q392692,Šumperk,16.970665435,49.965299915,1269-01-01T00:00:00Z,24969,,Czech Republic
Q393171,Żory,18.700555555,50.045,1272-01-01T00:00:00Z,61823,,Poland
Q985238,Lubliniec,18.6844,50.66897,1272-01-01T00:00:00Z,23427,,Poland
Q851419,Turnov,15.156899388,50.587341607,1272-01-01T00:00:00Z,14502,,Czech Republic
Q523469,Mariánské Lázně,12.701249703,49.964703891,1273-01-01T00:00:00Z,14225,,Czech Republic
Q12292,Vila-real,-0.101388888,39.937777777,1274-01-01T00:00:00Z,51852,,Spain
Q991924,Chęciny,20.46229,50.80021,1275-01-01T00:00:00Z,4364,,Poland
Q991924,Chęciny,20.467222222,50.802777777,1275-01-01T00:00:00Z,4364,,Poland
Q422286,Gostyń,17.0125,51.879166666,1275-01-01T00:00:00Z,20210,,Poland
Q80021,Daugavpils,26.516111111,55.871388888,1275-01-01T00:00:00Z,77799,,Latvia
Q6832,Ravensburg,9.611388888,47.783055555,1276-01-01T00:00:00Z,51482,,Germany
Q1089052,Wojnicz,20.83833333,49.95777778,1278-01-01T00:00:00Z,3113,,Poland
Q1780345,Dobrodzień,18.444444444,50.727777777,1279-01-01T00:00:00Z,3510,,Poland
Q1005428,Przemków,15.8,51.516666666,1280-01-01T00:00:00Z,5841,,Poland
Q1005428,Przemków,15.79441,51.5253,1280-01-01T00:00:00Z,5841,,Poland
Q14910,Schwäbisch Hall,9.7375,49.112222222,1280-01-01T00:00:00Z,41898,,Germany
Q237512,Lubin,16.2,51.4,1280-01-01T00:00:00Z,70016,,Poland
Q16069,Biberach an der Riss,9.788611111,48.098055555,1281-01-01T00:00:00Z,34008,,Germany
Q583910,Aš,12.1950743,50.223996008,1281-01-01T00:00:00Z,12783,,Czech Republic
Q275694,Opatów,21.424722222,50.805,1282-01-01T00:00:00Z,6154,,Poland
Q393091,Żelechów,21.9,51.8,1282-01-01T00:00:00Z,3790,,Poland
Q52845,Konin,18.261388888,52.2275,1283-01-01T00:00:00Z,69858,,Poland
Q634054,Conwy,-3.83,53.28,1283-01-01T00:00:00Z,14723,,United Kingdom
Q1075607,Chocianów,15.90172,51.41867,1284-01-01T00:00:00Z,7576,,Poland
Q1075607,Chocianów,15.916666666,51.416666666,1284-01-01T00:00:00Z,7576,,Poland
Q291333,Alūksne,27.050277777,57.423888888,1284-01-01T00:00:00Z,6175,,Latvia
Q7036,Brühl,6.9,50.833333333,1285-01-01T00:00:00Z,44804,,Germany
Q679238,Czaplinek,16.233333333,53.5575,1286-01-01T00:00:00Z,6876,,Poland
Q146509,Krzeszowice,19.633333333,50.133333333,1286-01-01T00:00:00Z,9868,,Poland
Q165015,Wangen im Allgäu,9.834166666,47.685833333,1286-01-01T00:00:00Z,27411,,Germany
Q931553,Lubniewice,15.249722222,52.516388888,1287-01-01T00:00:00Z,2015,,Poland
Q345293,Łaziska Górne,18.8528,50.1434,1287-01-01T00:00:00Z,21592,,Poland
Q386988,Říčany,14.654334421,49.991746433,1289-01-01T00:00:00Z,16955,,Czech Republic
Q995855,Radków,16.403333333,50.503888888,1290-01-01T00:00:00Z,2310,,Poland
Q772458,Połczyn-Zdrój,16.1,53.766666666,1290-01-01T00:00:00Z,7469,,Poland
Q325108,Bieruń,19.092778,50.089722,1290-01-01T00:00:00Z,19100,,Poland
Q104036,Ventspils,21.564444444,57.389722222,1290-08-15T00:00:00Z,32634,,Latvia
Q802,Nowy Sącz,20.697222222,49.623888888,1292-01-01T00:00:00Z,81281,Europe,Poland
Q1005419,Twardogóra,17.469722222,51.364722222,1293-01-01T00:00:00Z,6381,,Poland
Q656603,Jičín,15.3516528,50.4370452,1293-01-01T00:00:00Z,16230,,Czech Republic
Q108037,Valmiera,25.423055555,57.538055555,1293-01-01T00:00:00Z,22376,,Latvia
Q690039,Nowy Dwór Mazowiecki,20.683333333,52.433333333,1294-01-01T00:00:00Z,28651,,Poland
Q36989,Pardubice,15.77916,50.03861,1295-01-01T00:00:00Z,92362,,Czech Republic
Q43453,Plzeň,13.3825,49.741388888,1295-01-01T00:00:00Z,185599,,Czech Republic
Q276860,Knurów,18.683333333,50.216666666,1295-01-01T00:00:00Z,36498,,Poland
Q44500,Weißenburg in Bayern,10.971944444,49.030555555,1296-01-01T00:00:00Z,18854,,Germany
Q50973,Luboń,16.883333333,52.333333333,1296-01-01T00:00:00Z,33024,,Poland
Q992645,Sabugal,-7.083333333,40.35,1296-01-01T00:00:00Z,12544,,Portugal
Q291745,Ílhavo,-8.666666666,40.6,1296-01-01T00:00:00Z,40349,,Portugal
Q992920,Kąty Wrocławskie,16.766666666,51.033333333,1297-01-01T00:00:00Z,7176,,Poland
Q1020826,Quarteira,-8.10064,37.06946,1297-01-01T00:00:00Z,16131,,Portugal
Q1001571,Zalewo,19.606118,53.8458768,1299-01-01T00:00:00Z,2078,,Poland
Q270,Warsaw,21.011111111,52.23,1300-01-01T00:00:00Z,1860281,Europe,Poland
Q727,Amsterdam,4.893611111,52.372777777,1300-01-01T00:00:00Z,921468,Europe,Netherlands
Q192926,Kazanlak,25.393238,42.618748,1300-01-01T00:00:00Z,53644,,Bulgaria
Q510827,Strzelce Opolskie,18.283333333,50.5,1300-01-01T00:00:00Z,17512,,Poland
Q5582862,Cusco,-71.983333,-13.522222,1300-01-01T00:00:00Z,428450,,Peru
Q6022862,Montsonís,1.02241667,41.88701389,1300-01-01T00:00:00Z,70,,Spain
Q46852,Iași,27.588888888,47.162222222,1300-01-01T00:00:00Z,271692,,Romania
Q645022,Wągrowiec,17.199444444,52.808333333,1300-01-01T00:00:00Z,25773,,Poland
Q491535,Bad Wimpfen,9.163055555,49.230555555,1300-01-01T00:00:00Z,7398,,Germany
Q81811,Gaildorf,9.766666666,49.0,1300-01-01T00:00:00Z,12408,,Germany
Q18125,Manchester,-2.233333333,53.466666666,1301-01-01T00:00:00Z,547627,Europe,United Kingdom
Q1005464,Lidzbark,19.821111111,53.260277777,1301-01-01T00:00:00Z,7471,,Poland
Q988632,Mirosławiec,16.087222222,53.343888888,1303-01-01T00:00:00Z,3037,,Poland
Q8194,Iława,19.565555555,53.596388888,1305-01-01T00:00:00Z,32664,,Poland
Q989973,Tuczno,16.153611111,53.193611111,1306-01-01T00:00:00Z,1838,,Poland
Q263684,Czechowice-Dziedzice,19.004722222,49.913333333,1307-01-01T00:00:00Z,35261,,Poland
Q523287,Trzciel,15.883333333,52.366666666,1307-01-01T00:00:00Z,2282,,Poland
Q200459,Póvoa de Varzim,-8.75713,41.39158,1308-01-01T00:00:00Z,63408,,Portugal
Q3456410,Republic of Mulhouse,7.339166666,47.748611111,1308-12-06T00:00:00Z,7956,Europe,Holy Roman Empire
Q3456410,Republic of Mulhouse,7.339166666,47.748611111,1308-12-06T00:00:00Z,7956,Europe,Old Swiss Confederacy
Q848999,Szczecinek,16.69937,53.70791,1310-01-01T00:00:00Z,38446,,Poland
Q106583,Bielsko-Biała,19.044444444,49.8225,1312-01-01T00:00:00Z,169089,,Poland
Q45197,Świętochłowice,18.930861111,50.285472222,1313-01-01T00:00:00Z,46494,,Poland
Q54902,Fuenlabrada,-3.8,40.283333333,1315-01-01T00:00:00Z,188736,,Spain
Q1006813,Miłakowo,20.069178,54.009114,1315-01-01T00:00:00Z,2488,,Poland
Q37333,Lublin,22.566666666,51.25,1317-01-01T00:00:00Z,334681,,Poland
Q988588,Wyrzysk,17.266666666,53.15,1320-01-01T00:00:00Z,5085,,Poland
Q988588,Wyrzysk,17.26802,53.153,1320-01-01T00:00:00Z,5085,,Poland
Q16013,Königs Wusterhausen,13.625,52.291666666,1320-01-01T00:00:00Z,38929,,Germany
Q276857,Warka,21.1833835,51.7850969,1321-01-01T00:00:00Z,12003,,Poland
Q171018,Zlín,17.666944444,49.233055555,1322-01-01T00:00:00Z,74255,,Czech Republic
Q548441,Portugalete,-3.019583,43.319444,1322-01-01T00:00:00Z,44629,,Spain
Q622030,Palos de la Frontera,-6.8932258,37.2277697,1322-01-01T00:00:00Z,12537,,Spain
Q928392,Sierpc,19.666666666,52.883333333,1322-01-01T00:00:00Z,17308,,Poland
Q807991,Barczewo,20.69112,53.83055,1323-01-01T00:00:00Z,7476,,Poland
Q4312524,Nacajuca,-93.020042777,18.168857222,1325-01-01T00:00:00Z,10956,,Mexico
Q176229,Nowe Miasto Lubawskie,19.592777777,53.423888888,1325-01-01T00:00:00Z,10492,,Poland
Q13695,Tenochtitlan,-99.13138889,19.435,1325-03-09T00:00:00Z,212500,,
Q1505099,Dobre Miasto,20.395833333,53.9875,1326-01-01T00:00:00Z,9629,,Poland
Q201125,Zrenjanin,20.386111111,45.377777777,1326-01-01T00:00:00Z,67129,,Serbia
Q22950,Landstuhl,7.572222222,49.412222222,1326-01-01T00:00:00Z,8336,,Germany
Q183483,Lichtenau,8.883333333,51.6,1326-01-01T00:00:00Z,10867,,Germany
Q107094,Rybnik,18.5,50.083333333,1327-01-01T00:00:00Z,133772,,Poland
Q690062,Rønne,14.7,55.1,1327-01-01T00:00:00Z,13759,,Denmark
Q185280,Baia Mare,23.571944444,47.656666666,1329-01-01T00:00:00Z,108759,,Romania
Q319397,Kętrzyn,21.37527,54.07676,1329-01-01T00:00:00Z,26174,,Poland
Q319397,Kętrzyn,21.383333333,54.083333333,1329-01-01T00:00:00Z,26174,,Poland
Q899751,Ostróda,19.966666666,53.7,1329-01-01T00:00:00Z,32714,,Poland
Q2865,Kassel,9.497916666,51.315777777,1330-01-01T00:00:00Z,204202,,Germany
Q2973,Darmstadt,8.65,49.866666666,1330-01-01T00:00:00Z,162243,,Germany
Q106281,Tarnów,20.988333333,50.0125,1330-01-01T00:00:00Z,106259,,Poland
Q989801,Kisielice,19.259444444,53.606944444,1331-01-01T00:00:00Z,2097,,Poland
Q989801,Kisielice,19.2635,53.60855,1331-01-01T00:00:00Z,2097,,Poland
Q193722,Sergiyev Posad,38.133333333,56.3,1337-01-01T00:00:00Z,116000,,Russia
Q2341034,Bobowa,20.944722222,49.708611111,1339-01-01T00:00:00Z,3094,,Poland
Q990669,Grybów,20.948333333,49.624444444,1340-01-01T00:00:00Z,6010,,Poland
Q25410,Aalborg,9.916666666,57.05,1342-06-24T00:00:00Z,113417,,Denmark
Q1025304,Stronie Śląskie,16.87397,50.29554,1344-01-01T00:00:00Z,5178,,Poland
Q3882,Manama,50.5775,26.225,1345-01-01T00:00:00Z,297502,,Bahrain
Q209932,Biała Podlaska,23.116666666,52.033333333,1345-01-01T00:00:00Z,55429,,Poland
Q681893,Errenteria,-1.8986133,43.3125271,1346-01-01T00:00:00Z,39231,,Spain
Q496567,Eibar,-2.4732748,43.1842839,1346-02-13T00:00:00Z,27234,,Spain
Q45888,Burg Stargard,13.3,53.483333333,1347-01-01T00:00:00Z,5289,,Germany
Q15899,Murska Sobota,16.161944444,46.658611111,1348-01-01T00:00:00Z,11190,,Slovenia
Q1280603,Piwniczna-Zdrój,20.711388888,49.435277777,1348-01-01T00:00:00Z,5448,,Poland
Q1280603,Piwniczna-Zdrój,20.71423,49.44056,1348-01-01T00:00:00Z,5448,,Poland
Q745085,Mrągowo,21.305,53.864166666,1348-01-01T00:00:00Z,21325,,Poland
Q753219,New Town,14.4264,50.0767,1348-01-01T00:00:00Z,21941,,Czech Republic
Q203370,Phra Nakhon Si Ayutthaya,100.5761452,14.359359083,1350-01-01T00:00:00Z,52940,,Thailand
Q37100,Auckland,174.765277777,-36.849166666,1350-01-01T00:00:00Z,1470100,Insular Oceania,New Zealand
Q384544,Karlovy Vary,12.8725,50.230555555,1350-01-01T00:00:00Z,49353,,Czech Republic
Q178855,Botoșani,26.669444444,47.748611111,1350-01-01T00:00:00Z,90010,Europe,Romania
Q1010153,Sępopol,21.014444444,54.268888888,1351-01-01T00:00:00Z,1925,,Poland
Q491743,Dinkelsbühl,10.319444444,49.070833333,1351-01-01T00:00:00Z,12267,,Germany
Q146351,Liberec,15.05,50.766666666,1352-01-01T00:00:00Z,107982,,Czech Republic
Q2211,Malmö,13.021423031,55.593188589,1353-01-01T00:00:00Z,325069,,Sweden
Q82765,Olsztyn,20.494166666,53.78,1353-11-08T00:00:00Z,170225,,Poland
Q947521,Gorlice,21.16035,49.65563,1354-01-01T00:00:00Z,26405,,Poland
Q954130,Kudowa-Zdrój,16.24397,50.44297,1354-01-01T00:00:00Z,9627,,Poland
Q598,Rzeszów,22.0,50.05,1354-01-27T00:00:00Z,195871,Europe,Poland
Q193229,Visoko,18.180555555,43.989444444,1355-01-01T00:00:00Z,39938,,Bosnia and Herzegovina
Q25331,Odense,10.383333333,55.4,1355-01-01T00:00:00Z,176683,,Denmark
Q936933,Reda,18.35,54.616666666,1357-01-01T00:00:00Z,28506,,Poland
Q947404,Dębica,21.41141,50.05146,1358-01-01T00:00:00Z,44047,,Poland
Q208169,Republic of Ragusa,18.06666667,42.65,1358-07-05T00:00:00Z,30000,Europe,Republic of Ragusa
Q10773354,Ngawi,111.457777777,-7.410555555,1358-07-15T00:00:00Z,85776,,Indonesia
Q653797,Brzozów,22.019444444,49.695277777,1359-01-01T00:00:00Z,7366,,Poland
Q1025475,Jaunpur,82.686944444,25.753611111,1359-01-01T00:00:00Z,180362,,India
Q953181,Szczytno,21.0,53.566666666,1359-01-01T00:00:00Z,22389,,Poland
Q280407,Kargowa,15.861388888,52.071388888,1360-01-01T00:00:00Z,3838,,Poland
Q157144,Vinnytsia,28.467222222,49.237222222,1363-01-01T00:00:00Z,369739,,Ukraine
Q157994,Tomaszów Mazowiecki,20.008888888,51.531388888,1363-01-01T00:00:00Z,59388,,Poland
Q990186,Margonin,17.083333333,52.966666666,1364-01-01T00:00:00Z,3019,,Poland
Q102397,Miskolc,20.783333333,48.1,1365-01-01T00:00:00Z,145248,Europe,Hungary
Q848983,Jasło,21.466666666,49.733333333,1365-01-01T00:00:00Z,33830,,Poland
Q513446,Isny im Allgäu,10.039444444,47.691944444,1365-01-01T00:00:00Z,14835,,Germany
Q186495,Szklarska Poręba,15.52274,50.82567,1366-01-01T00:00:00Z,5933,,Poland
Q336217,Radymno,22.816388888,49.95,1366-01-01T00:00:00Z,5621,,Poland
Q985005,Pisz,21.81253,53.62744,1367-01-01T00:00:00Z,18245,,Poland
Q1946067,Tyczyn,22.03398,49.96384,1368-01-01T00:00:00Z,4325,,Poland
Q1946067,Tyczyn,22.033333333,49.966666666,1368-01-01T00:00:00Z,4325,,Poland
Q250485,Sochaczew,20.233333333,52.225,1368-01-01T00:00:00Z,34439,,Poland
Q638725,Stęszew,16.708083333,52.278944444,1370-01-01T00:00:00Z,5964,,Poland
Q201442,Kruševac,21.326666666,43.583333333,1371-01-01T00:00:00Z,58745,,Serbia
Q1850,Phnom Penh,104.921027777,11.569583333,1372-01-01T00:00:00Z,2129371,,Cambodia
Q835423,Strzyżów,21.791111111,49.870833333,1373-01-01T00:00:00Z,8967,,Poland
Q854987,Soltvadkert,19.393611111,46.580833333,1376-01-01T00:00:00Z,6980,,Hungary
Q450625,Alytus,24.05,54.4,1377-01-01T00:00:00Z,51856,,Lithuania
Q477955,Mszczonów,20.526666666,51.974166666,1377-01-01T00:00:00Z,6159,,Poland
Q497154,Jastarnia,18.666666666,54.7,1378-01-01T00:00:00Z,2665,,Poland
Q345389,Łochów,21.7,52.533333333,1378-01-01T00:00:00Z,6689,,Poland
Q403112,Rzgów,19.459722222,51.662222222,1378-01-01T00:00:00Z,3432,,Poland
Q155281,Kuldīga,21.97,56.967222222,1378-01-01T00:00:00Z,9940,,Latvia
Q336386,Dukla,21.683333333,49.558333333,1380-01-01T00:00:00Z,2037,,Poland
Q193103,Herceg Novi,18.5375,42.453055555,1382-01-01T00:00:00Z,16493,Europe,Montenegro
Q185555,Birštonas,24.033333333,54.6,1382-01-01T00:00:00Z,3094,,Lithuania
Q324884,Brzesko,20.616666666,49.966666666,1385-01-01T00:00:00Z,16193,,Poland
Q166684,Limbaži,24.713055555,57.514722222,1385-01-01T00:00:00Z,6613,,Latvia
Q203929,Zimnicea,25.365,43.653888888,1385-01-01T00:00:00Z,12589,,Romania
Q1003267,Koniecpol,19.683333333,50.783333333,1386-01-01T00:00:00Z,5582,,Poland
Q1005483,Pasym,20.790833333,53.647777777,1386-01-01T00:00:00Z,2407,,Poland
Q1005483,Pasym,20.79188,53.65069,1386-01-01T00:00:00Z,2407,,Poland
Q995141,Różan,21.385555555,52.882777777,1387-01-01T00:00:00Z,2647,,Poland
Q995141,Różan,21.39105,52.88757,1387-01-01T00:00:00Z,2647,,Poland
Q46400,Suceava,26.255555555,47.651388888,1388-01-01T00:00:00Z,84322,,Romania
Q309348,Khan Yunis,34.3025,31.343889,1389-01-01T00:00:00Z,142637,,United Arab Republic
Q309348,Khan Yunis,34.3025,31.343889,1389-01-01T00:00:00Z,142637,,State of Palestine
Q309348,Khan Yunis,34.3025,31.343889,1389-01-01T00:00:00Z,142637,,Israeli-occupied territories
Q2473421,Lityn,28.087205555,49.325525,1391-01-01T00:00:00Z,6658,,Ukraine
Q640355,Kartuzy,18.19735,54.33424,1391-01-01T00:00:00Z,14204,,Poland
Q234184,Chełm,23.483333333,51.133333333,1392-01-01T00:00:00Z,59546,,Poland
Q431347,Rădăuți,25.919166666,47.8425,1393-01-01T00:00:00Z,24292,,Romania
Q93323,Chrzanów,19.4,50.133333333,1393-01-01T00:00:00Z,35091,,Poland
Q259489,Rychwał,18.171666666,52.071111111,1394-01-01T00:00:00Z,2402,,Poland
Q169237,Zduńska Wola,18.933333333,51.6,1394-01-01T00:00:00Z,45908,,Poland
Q8684,Seoul,126.99,37.56,1395-06-14T00:00:00Z,9668465,Asia,South Korea
Q61089,Malacca,102.251111111,2.188888888,1396-01-01T00:00:00Z,455300,,Malaysia
Q614145,Leżajsk,22.4186,50.2655,1397-01-01T00:00:00Z,13164,,Poland
Q345386,Łobżenica,17.25,53.266666666,1398-01-01T00:00:00Z,2853,,Poland
Q79863,Tskhinvali,43.970072,42.225661,1398-01-01T00:00:00Z,32699,,Georgia
Q79863,Tskhinvali,43.970072,42.225661,1398-01-01T00:00:00Z,32699,,South Ossetia
Q3168220,Imperial City of Dinkelsbühl,10.319194444,49.069194444,1398-01-01T00:00:00Z,8000,,Holy Roman Empire
Q994271,Opoczno,20.283333333,51.383333333,1400-01-01T00:00:00Z,19738,,Poland
Q988185,Glinojeck,20.283333333,52.816666666,1400-01-01T00:00:00Z,2858,,Poland
Q988185,Glinojeck,20.29198,52.81983,1400-01-01T00:00:00Z,2858,,Poland
Q1019505,Nowe Miasto nad Pilicą,20.576111111,51.619444444,1400-01-01T00:00:00Z,3649,,Poland
Q270656,Płońsk,20.383333333,52.625,1400-01-01T00:00:00Z,21800,,Poland
Q647982,Guba,48.526388888,41.365277777,1401-01-01T00:00:00Z,20791,,Azerbaijan
Q2343396,Parczew,22.866666666,51.633333333,1401-01-01T00:00:00Z,10519,,Poland
Q745005,Sucha Beskidzka,19.588611111,49.740277777,1405-01-01T00:00:00Z,8951,,Poland
Q858312,Bieżuń,19.88976,52.96107,1406-01-01T00:00:00Z,1758,,Poland
Q1005905,Lwówek,16.183333333,52.45,1406-01-01T00:00:00Z,2938,,Poland
Q800009,Lututów,18.43225,51.372361111,1406-01-01T00:00:00Z,2214,,Poland
Q239266,Višegrad,19.2925,43.7825,1407-01-01T00:00:00Z,5869,,Bosnia and Herzegovina
Q192176,Bender,29.483333333,46.833333333,1408-01-01T00:00:00Z,76158,,Moldova
Q985687,Konstancin-Jeziorna,21.116666666,52.083333333,1410-01-01T00:00:00Z,17157,Europe,Poland
Q985687,Konstancin-Jeziorna,21.11761,52.0938,1410-01-01T00:00:00Z,17157,Europe,Poland
Q1070,Ahmedabad,72.579722222,23.021944444,1411-03-07T00:00:00Z,7645000,,India
Q1946049,Zagórz,22.266666666,49.516666666,1412-01-01T00:00:00Z,5046,,Poland
Q169247,Doboj,18.133333333,44.733333333,1415-07-07T00:00:00Z,68514,,Bosnia and Herzegovina
Q3077833,Nowe Miasto,20.6333,52.65,1420-01-01T00:00:00Z,1545,,Poland
Q406081,Teteven,24.257417,42.91773,1421-01-01T00:00:00Z,9720,,Bulgaria
Q580,Łódź,19.466666666,51.75,1423-08-07T00:00:00Z,670642,,Poland
Q941451,Tykocin,22.77457,53.20567,1425-01-01T00:00:00Z,1917,,Poland
Q1897640,Zwoleń,21.583888888,51.356944444,1425-01-01T00:00:00Z,7417,,Poland
Q1897640,Zwoleń,21.58768,51.35542,1425-01-01T00:00:00Z,7417,,Poland
Q1614791,Kolno,21.933888888,53.410555555,1425-01-01T00:00:00Z,9999,,Poland
Q974977,Szydłowiec,20.85,51.233333333,1427-01-01T00:00:00Z,10959,,Poland
Q974977,Szydłowiec,20.86106,51.22823,1427-01-01T00:00:00Z,10959,,Poland
Q127623,Vantaa,25.040277777,60.294444444,1428-01-01T00:00:00Z,248199,Europe,Finland
Q983868,Mława,20.366666666,53.116666666,1429-07-22T00:00:00Z,30919,,Poland
Q841352,Ostrów Mazowiecka,21.9,52.8,1434-01-01T00:00:00Z,22013,,Poland
Q25390,Leeuwarden,5.783333333,53.2,1435-01-01T00:00:00Z,93765,,Netherlands
Q21197,Chișinău,28.835277777,47.022777777,1436-01-01T00:00:00Z,639000,,Moldova
Q1538,Pune,73.855287,18.519574,1436-01-01T00:00:00Z,5945000,,India
Q841356,Giżycko,21.758888888,54.04,1437-01-01T00:00:00Z,28233,,Poland
Q146453,Kalush,24.359722222,49.044166666,1437-01-01T00:00:00Z,67902,,Ukraine
Q617624,Râmnicu Sărat,27.06,45.38,1439-01-01T00:00:00Z,29774,,Romania
Q505416,Anykščiai,25.107222222,55.534444444,1442-01-01T00:00:00Z,8638,,Lithuania
Q324971,Dąbrowa Tarnowska,20.983333333,50.175,1442-01-01T00:00:00Z,11549,,Poland
Q1922307,Ryki,21.933333333,51.633333333,1442-01-01T00:00:00Z,9229,,Poland
Q170996,Galați,28.0425,45.423333333,1445-01-01T00:00:00Z,217851,,Romania
Q319813,Siedlce,22.283333333,52.183333333,1448-01-01T00:00:00Z,76357,,Poland
Q6149,Soest,8.109166666,51.571111111,1449-01-01T00:00:00Z,48607,,Germany
Q208149,Ponta Delgada,-25.67,37.74,1450-01-01T00:00:00Z,68809,,Portugal
Q1012,Celje,15.264128741,46.22909194,1451-01-01T00:00:00Z,37875,Europe,Slovenia
Q25444,Funchal,-16.916666666,32.65,1451-01-01T00:00:00Z,105795,,Portugal
Q209977,Ștefănești,24.9526897,44.8716933,1452-08-14T00:00:00Z,15931,,Romania
Q406,Istanbul,28.960277777,41.01,1453-06-07T00:00:00Z,15462452,Europe,Turkey
Q406,Istanbul,28.960277777,41.01,1453-06-07T00:00:00Z,15462452,Asia,Turkey
Q2734,Skierniewice,20.1430044,51.9568581,1457-01-01T00:00:00Z,46437,,Poland
Q658861,Mielec,21.433333333,50.283333333,1457-03-26T00:00:00Z,58213,Europe,Poland
Q47034,Espoo,24.655555555,60.205555555,1458-01-01T00:00:00Z,314821,Europe,Finland
Q200019,Jodhpur,73.027777777,26.294444444,1459-01-01T00:00:00Z,1033918,,India
Q19660,Bucharest,26.097777777,44.413361111,1459-01-01T00:00:00Z,1716961,Europe,Romania
Q23185,Mytishchi,37.733333333,55.916666666,1460-01-01T00:00:00Z,275313,,Russia
Q202453,Novi Pazar,20.516666666,43.15,1461-01-01T00:00:00Z,66527,,Serbia
Q11194,Sarajevo,18.413055555,43.856388888,1462-01-01T00:00:00Z,275524,,Bosnia and Herzegovina
Q11977,Tychy,18.986666666,50.123611111,1467-01-01T00:00:00Z,124882,,Poland
Q5470,Cheboksary,47.25,56.133333333,1469-01-01T00:00:00Z,489498,,Russia
Q21180,Silkeborg,9.55,56.166666666,1470-01-01T00:00:00Z,50866,,Denmark
Q676778,Chefchaouen,-5.269722222,35.171388888,1471-01-01T00:00:00Z,42786,,Morocco
Q8673,Lagos,3.4,6.45,1472-01-01T00:00:00Z,15070000,,Nigeria
Q999076,Dera Ghazi Khan,70.633333333,30.05,1474-01-01T00:00:00Z,399064,,Pakistan
Q167394,Kragujevac,20.939444444,44.014166666,1476-01-01T00:00:00Z,150623,,Serbia
Q180131,Gabrovo,25.31784,42.874242,1477-01-01T00:00:00Z,59190,,Bulgaria
Q407570,Peshtera,24.302525,42.033977,1479-01-01T00:00:00Z,21511,,Bulgaria
Q691016,Mutsamudu,44.393888888,-12.1675,1482-01-01T00:00:00Z,30000,,Comoros
Q316841,Karlovo,24.80821,42.642034,1483-01-01T00:00:00Z,24642,,Bulgaria
Q3932,São Tomé,6.733333333,0.333333333,1485-01-01T00:00:00Z,65468,,São Tomé and Príncipe
Q186576,Pazardzhik,24.332755,42.193477,1485-01-01T00:00:00Z,82148,,Bulgaria
Q988225,Tapachula de Córdova y Ordóñez,-92.26432,14.911071388,1486-01-01T00:00:00Z,217550,,Mexico
Q335580,Wysokie Mazowieckie,22.514444444,52.919166666,1492-01-01T00:00:00Z,9155,,Poland
Q538953,La Vega,-70.528333,19.224167,1494-01-01T00:00:00Z,248089,,Dominican Republic
Q131127,Banja Luka,17.1925,44.7725,1494-02-15T00:00:00Z,185042,,Bosnia and Herzegovina
Q42763,Santiago de los Caballeros,-70.7,19.45,1495-01-01T00:00:00Z,1343423,,Dominican Republic
Q34820,Santo Domingo,-69.893333333,18.476388888,1496-01-01T00:00:00Z,1128678,,Dominican Republic
Q2082,St. John's,-52.707222222,47.5675,1497-07-03T00:00:00Z,110525,,Canada
Q769631,Drohiczyn,22.65,52.4,1498-01-01T00:00:00Z,1848,,Poland
Q853785,Soroca,28.2975,48.155833333,1499-01-01T00:00:00Z,22196,,Moldova
Q1906334,Supraśl,23.333333333,53.216666666,1500-01-01T00:00:00Z,4427,,Poland
Q1946017,Ostrów Lubelski,22.855,51.491111111,1500-01-01T00:00:00Z,2033,,Poland
Q158119,Ramallah,35.201666666,31.896944444,1501-01-01T00:00:00Z,38998,,State of Palestine
Q320007,Puławy,21.96939,51.41655,1501-01-01T00:00:00Z,45267,,Poland
Q1019675,Nové Město nad Metují,16.151547223,50.34459888,1501-01-01T00:00:00Z,9304,,Czech Republic
Q499318,Prienai,23.95,54.633333333,1502-01-01T00:00:00Z,8894,,Lithuania
Q319476,Upata,-64.166666666,10.45,1502-01-01T00:00:00Z,374706,,Venezuela
Q630692,Saint Ann's Bay,-77.20166667,18.435,1503-01-01T00:00:00Z,13671,,Jamaica
Q1719466,Panevėžys,24.363888888,55.725,1503-01-01T00:00:00Z,87913,,Lithuania
Q1020261,Higüey,-68.711111111,18.618055555,1503-01-01T00:00:00Z,251243,,Dominican Republic
Q373813,Albufeira,-8.24583,37.0897,1504-01-01T00:00:00Z,44168,,Portugal
Q170525,Agadir,-9.583055555,30.421388888,1505-01-01T00:00:00Z,538000,,Morocco
Q255385,Miastko,16.976388888,53.999166666,1506-01-01T00:00:00Z,9491,,Poland
Q1252806,Mandi Bahauddin,73.491666666,32.586111111,1506-01-01T00:00:00Z,157352,,Pakistan
Q1156,Mumbai,72.8775,19.075833333,1507-01-01T00:00:00Z,15414288,Asia,India
Q1906346,Ustrzyki Dolne,22.59381,49.4304,1509-01-01T00:00:00Z,8717,,Poland
Q1906346,Ustrzyki Dolne,22.6,49.433333333,1509-01-01T00:00:00Z,8717,,Poland
Q185156,Guantánamo,-75.206111,20.138333,1510-01-01T00:00:00Z,228436,,Cuba
Q1853310,Ondo,4.833333333,7.083333333,1510-01-01T00:00:00Z,358430,,Nigeria
Q487684,Türkmenabat,63.566666666,39.1,1511-01-01T00:00:00Z,256000,,Turkmenistan
Q115382,"Bayamo, Cuba.",-76.642777777,20.381666666,1513-11-05T00:00:00Z,235107,,Cuba
Q319272,Trinidad,-79.966666666,21.8,1514-01-01T00:00:00Z,51994,,Cuba
Q845720,Sancti Spíritus,-79.443888888,21.933888888,1514-01-01T00:00:00Z,138504,,Cuba
Q115329,Camagüey,-77.918611111,21.378611111,1514-01-01T00:00:00Z,321992,,Cuba
Q117040,Santiago de Cuba,-75.829444444,20.021666666,1514-01-01T00:00:00Z,444851,,Cuba
Q395919,Anadia,-8.433333333,40.433333333,1514-01-01T00:00:00Z,27532,,Portugal
Q404261,Ovar,-8.633333333,40.866666666,1514-02-20T00:00:00Z,55398,,Portugal
Q1563,Havana,-82.358888888,23.136666666,1515-01-01T00:00:00Z,2492618,,Cuba
Q564759,Lagoa,-25.583333333,37.75,1515-01-01T00:00:00Z,14442,,Portugal
Q173270,Veracruz,-96.153333333,19.190277777,1519-01-01T00:00:00Z,428323,,Mexico
Q990403,Maia,-8.616666666,41.233333333,1519-01-01T00:00:00Z,135306,,Portugal
Q3306,Panama City,-79.5,9.0,1519-09-04T00:00:00Z,880691,,Panama
Q12082297,Berca,26.680974,45.287339,1519-12-05T00:00:00Z,3038,,Romania
Q502023,Coatzacoalcos,-94.463333333,18.135833333,1520-01-01T00:00:00Z,319187,,Mexico
Q81398,Acapulco,-99.8901,16.86336,1520-01-01T00:00:00Z,673478,,Mexico
Q81398,Acapulco,-99.8870087,16.8628695,1520-01-01T00:00:00Z,673478,,Mexico
Q9310,Dili,125.578333333,-8.553611111,1520-01-01T00:00:00Z,222323,,East Timor
Q3544851,Natá de los Caballeros,-80.52,8.33,1520-05-30T00:00:00Z,6003,,Panama
Q1489,Mexico City,-99.145555555,19.419444444,1521-01-01T00:00:00Z,9209944,North America,Mexico
Q57951,Marienberg,13.164722222,50.650833333,1521-01-01T00:00:00Z,16603,,Germany
Q41211,San Juan,-66.118055555,18.465555555,1521-01-01T00:00:00Z,342259,,United States of America
Q924078,Grodzisk Mazowiecki,20.625,52.108888888,1522-01-01T00:00:00Z,33708,,Poland
Q924078,Grodzisk Mazowiecki,20.6337,52.10387,1522-01-01T00:00:00Z,33708,,Poland
Q12087020,Bisoca,26.706427,45.542233,1522-02-13T00:00:00Z,192,,Romania
Q244154,Holguín,-76.263055555,20.887222222,1523-01-01T00:00:00Z,350191,,Cuba
Q688654,Dubăsari,29.166666666,47.266666666,1523-01-01T00:00:00Z,28500,,Moldova
Q688654,Dubăsari,29.166666666,47.266666666,1523-01-01T00:00:00Z,28500,,Transnistria
Q334577,Quetzaltenango,-91.516666666,14.833333333,1524-01-01T00:00:00Z,207620,,Guatemala
Q984863,Huehuetenango,-91.476111111,15.314722222,1524-01-01T00:00:00Z,136639,,Guatemala
Q205648,Granada,-85.953591666,11.93035,1524-05-01T00:00:00Z,105171,,Nicaragua
Q208151,León,-86.878833333,12.434825,1524-06-25T00:00:00Z,174051,,Nicaragua
Q1555,Guatemala City,-90.52525,14.609861111,1524-08-04T00:00:00Z,1213651,North America,Guatemala
Q209016,Santa Marta,-74.201666666,11.236111111,1525-01-01T00:00:00Z,515556,,Colombia
Q3110,San Salvador,-89.191427777,13.698963888,1525-04-11T00:00:00Z,316090,,El Salvador
Q992173,Trujillo,-85.952958333,15.917936111,1525-05-28T00:00:00Z,60558,,Honduras
Q948953,Mixco,-90.614583333,14.633805555,1526-01-01T00:00:00Z,527828,,Guatemala
Q1020320,San Carlos,-84.771691666,11.132502777,1526-01-01T00:00:00Z,37461,,Nicaragua
Q149955,Esmeraldas,-79.666666666,0.95,1526-10-01T00:00:00Z,155487,,Ecuador
Q61320,Colima,-103.728118888,19.242922222,1527-01-30T00:00:00Z,146965,,Mexico
Q209034,Toluca,-99.653888888,19.292222222,1527-03-29T00:00:00Z,223876,,Mexico
Q3630,Jakarta,106.8275,-6.175,1527-07-02T00:00:00Z,10562088,Asia,Indonesia
Q739908,Manzanillo,-104.316380555,19.053205833,1527-08-03T00:00:00Z,159853,,Mexico
Q1134454,Coro,-69.681583333,11.395,1527-08-05T00:00:00Z,284266,,Venezuela
Q524894,San Cristóbal de las Casas,-92.637563888,16.737022222,1528-04-10T00:00:00Z,183509,,Mexico
Q171632,Maracaibo,-71.633333333,10.633333333,1529-09-18T00:00:00Z,1551539,,Venezuela
Q2879423,Zacatelco,-98.245574,19.201331,1529-12-01T00:00:00Z,38654,,Mexico
Q672458,San Miguel,-88.177222222,13.480358333,1530-01-01T00:00:00Z,218410,,El Salvador
Q155277,Tlaquepaque,-103.3096,20.6369,1530-01-01T00:00:00Z,664193,,Mexico
Q1798559,Tonalá,-103.23423,20.62445,1530-01-01T00:00:00Z,569913,,Mexico
Q207972,Tepic,-104.9,21.5,1531-01-01T00:00:00Z,425942,,Mexico
Q125293,Puebla City,-98.217777777,19.051388888,1531-04-26T00:00:00Z,1434062,,Mexico
Q173121,Santiago de Querétaro,-100.388055555,20.588055555,1531-08-04T00:00:00Z,794789,,Mexico
Q135864,Santa Elena,-80.8583,-2.2267,1531-08-28T00:00:00Z,54565,,Ecuador
Q211760,Culiacán,-107.387777777,24.790277777,1531-10-09T00:00:00Z,808416,,Mexico
Q223966,Piura,-80.625277777,-5.200833333,1532-01-01T00:00:00Z,473025,,Peru
Q827640,Tumbes,-80.459722222,-3.570833333,1532-01-01T00:00:00Z,96946,,Peru
Q272254,São Vicente,-46.3861401,-23.9664177,1532-01-01T00:00:00Z,329844,,Brazil
Q1094355,Ciudad Guzmán,-103.4617,19.704661111,1533-01-01T00:00:00Z,115000,,Mexico
Q657461,Cartagena de Indias,-75.525277777,10.423611111,1533-01-01T00:00:00Z,914552,,Colombia
Q607167,Iguala,-99.538333333,18.345,1534-01-01T00:00:00Z,118468,,Mexico
Q373705,Ilhéus,-39.048888888,-14.788888888,1534-01-01T00:00:00Z,178703,,Brazil
Q499922,Porto Seguro,-39.065,-16.45,1534-01-01T00:00:00Z,167955,,Brazil
Q990738,Manta,-80.7162,-0.950022222,1534-03-12T00:00:00Z,258697,,Ecuador
Q13191114,Gualaceo,-78.776,-2.8864,1534-04-01T00:00:00Z,13843,,Ecuador
Q917434,Jauja,-75.5,-11.775,1534-05-05T00:00:00Z,27560,,Peru
Q2640072,Alausi,-78.846388888,-2.201388888,1534-07-09T00:00:00Z,6071,,Ecuador
Q43509,Guayaquil,-79.8875,-2.19,1534-08-25T00:00:00Z,2650288,,Ecuador
Q478675,Riobamba,-78.648333333,-1.673055555,1534-08-25T00:00:00Z,177213,,Ecuador
Q1020794,Otavalo,-78.266667,0.233333,1534-12-01T00:00:00Z,41718,,Ecuador
Q2900,Quito,-78.5125,-0.22,1534-12-16T00:00:00Z,1763275,,Ecuador
Q633929,Nacaome,-87.488141666,13.532519444,1535-01-01T00:00:00Z,57345,,Honduras
Q1773148,Choluteca,-87.184236111,13.301377777,1535-01-01T00:00:00Z,152519,,Honduras
Q334197,Vila Velha,-40.293611111,-20.336388888,1535-01-01T00:00:00Z,472762,,Brazil
Q2868,Lima,-77.0375,-12.06,1535-01-28T00:00:00Z,9943800,,Peru
Q214173,Trujillo,-79.028888888,-8.111944444,1535-03-15T00:00:00Z,919899,,Peru
Q28301,Olinda,-34.855,-8.008888888,1535-03-22T00:00:00Z,349976,,Brazil
Q990716,Portoviejo,-80.454444444,-1.054444444,1535-03-22T00:00:00Z,244129,Americas,Ecuador
Q214215,La Paz,-110.306666666,24.148611111,1535-05-13T00:00:00Z,250141,,Mexico
Q752113,Tulcán,-77.718611111,0.811666666,1535-06-21T00:00:00Z,56719,,Ecuador
Q4405656,San Gabriel,-77.828888888,0.592777777,1535-08-15T00:00:00Z,14497,,Ecuador
Q1043513,Sincelejo,-75.395833333,9.299444444,1535-10-14T00:00:00Z,286716,,Colombia
Q274584,San Pedro Sula,-88.024897222,15.506186111,1536-01-01T00:00:00Z,719064,,Honduras
Q51103,Cali,-76.519722222,3.44,1536-01-01T00:00:00Z,2471474,,Colombia
Q399270,Uruapan,-102.063055555,19.421111111,1536-01-01T00:00:00Z,334749,,Mexico
Q33986,Valparaíso,-71.619722222,-33.046111111,1536-01-01T00:00:00Z,296655,,Chile
Q1355,Bengaluru,77.5912997,12.9791198,1537-01-01T00:00:00Z,12327000,Asia,India
Q2933,Asunción,-57.633333333,-25.3,1537-01-01T00:00:00Z,477346,,Paraguay
Q679169,Comayagua,-87.637925,14.452766666,1537-01-01T00:00:00Z,144785,,Honduras
Q335135,Popayán,-76.609166666,2.454166666,1537-01-01T00:00:00Z,300837,,Colombia
Q740288,Santa Cruz de Mompox,-74.425,9.239444444,1537-01-01T00:00:00Z,45417,,Colombia
Q105037,Callao,-77.139166666,-12.052222222,1537-03-16T00:00:00Z,567702,,Peru
Q1014430,Daule,-79.98333333,-1.86666667,1537-09-22T00:00:00Z,161498,,Ecuador
Q135975,Areguá,-57.416944,-25.3,1538-01-01T00:00:00Z,67487,,Paraguay
Q2907,Sucre,-65.26,-19.0475,1538-01-01T00:00:00Z,300000,,Bolivia
Q2717436,Ypané,-57.53,-25.45,1538-04-02T00:00:00Z,34943,,Paraguay
Q2841,Bogotá,-74.08175,4.60971,1538-08-16T00:00:00Z,7743955,,Colombia
Q693140,Santa Cruz del Quiché,-91.25,15.05,1539-01-01T00:00:00Z,99479,,Guatemala
Q1093448,Itá,-57.35,-25.483333333,1539-01-01T00:00:00Z,81084,,Paraguay
Q2638696,Yaguarón,-57.284015,-25.5620692,1539-01-01T00:00:00Z,32000,,Paraguay
Q7414937,San Miguel,-79.041944444,-1.708333333,1539-01-01T00:00:00Z,8806,,Ecuador
Q320015,Pasto,-77.274722222,1.21,1539-01-01T00:00:00Z,410835,,Colombia
Q236744,Tunja,-73.361388888,5.540277777,1539-08-16T00:00:00Z,202939,South America,Colombia
Q504394,Huánuco,-76.239722222,-9.929444444,1539-08-25T00:00:00Z,196627,,Peru
Q215238,Abancay,-72.883333333,-13.633333333,1540-01-01T00:00:00Z,72277,,Peru
Q504215,Ayacucho,-74.224444444,-13.163055555,1540-05-05T00:00:00Z,216444,,Peru
Q285672,Moyobamba,-76.966666666,-6.033333333,1540-08-04T00:00:00Z,50073,,Peru
Q159273,Arequipa,-71.536883333,-16.398763888,1540-08-25T00:00:00Z,1008290,,Peru
Q61301,San Francisco de Campeche,-90.539649166,19.844814166,1540-10-14T00:00:00Z,249623,,Mexico
Q172438,Peterborough,-0.243055555,52.5725,1541-01-01T00:00:00Z,194000,,United Kingdom
Q855976,Białobrzegi,20.95041,51.64695,1541-01-01T00:00:00Z,6615,,Poland
Q855976,Białobrzegi,20.95,51.65,1541-01-01T00:00:00Z,6615,,Poland
Q147402,Zapopan,-103.391944444,20.720277777,1541-01-01T00:00:00Z,1476491,,Mexico
Q2887,Santiago,-70.65,-33.4375,1541-01-01T00:00:00Z,6257516,,Chile
Q2203,Arica,-70.321222222,-18.478388888,1541-01-01T00:00:00Z,202131,,Chile
Q9022,Guadalajara,-103.3475,20.676666666,1542-01-01T00:00:00Z,1460148,North America,Mexico
Q4459029,Tlaltenango de Sánchez Román,-103.3,21.783333333,1542-01-01T00:00:00Z,21636,,Mexico
Q165204,Mérida,-89.62,20.97,1542-01-16T00:00:00Z,892363,,Mexico
Q212773,Antigua Guatemala,-90.733333333,14.5575,1543-01-01T00:00:00Z,59091,,Guatemala
Q753121,Atacames,-79.833333333,0.866666666,1543-01-01T00:00:00Z,18948,,Ecuador
Q1020762,Izamal,-89.017777777,20.931388888,1543-01-01T00:00:00Z,16195,,Mexico
Q959528,Morón,-78.627777777,22.110833333,1543-06-03T00:00:00Z,59371,,Cuba
Q1024731,Valladolid,-88.201666666,20.689444444,1543-06-07T00:00:00Z,48973,,Mexico
Q283885,Lubartów,22.6,51.466666666,1543-06-08T00:00:00Z,20494,,Poland
Q14467,La Serena,-71.252,-29.9027,1544-01-01T00:00:00Z,195382,,Chile
Q25304,Pichilemu,-72.0049,-34.3851,1544-01-01T00:00:00Z,12776,,Chile
Q200934,Tomé,-72.9575,-36.6171,1544-01-01T00:00:00Z,42312,,Chile
Q1763574,São Mateus,-39.858888888,-18.715833333,1544-10-01T00:00:00Z,132642,,Brazil
Q405797,Isperih,26.828106,43.720379,1545-01-01T00:00:00Z,11421,,Bulgaria
Q1324653,El Tocuyo,-69.793055555,9.782222222,1545-01-01T00:00:00Z,41327,,Venezuela
Q61306,Guanajuato City,-101.256666666,21.017777777,1546-01-01T00:00:00Z,194500,,Mexico
Q81882,Santos,-46.3286399,-23.9335988,1546-01-01T00:00:00Z,418608,,Brazil
Q899467,Darabani,26.589166666,48.186388888,1546-01-01T00:00:00Z,11948,,Romania
Q54884,Cariamanga,-79.56,-4.32,1546-05-09T00:00:00Z,13175,,Ecuador
Q259497,Krynica-Zdrój,20.95942,49.42225,1547-01-01T00:00:00Z,10001,,Poland
Q913356,Tocuyito,-68.09222222,10.08888889,1547-01-01T00:00:00Z,197446,,Venezuela
Q816845,Irapuato,-101.3475,20.674166666,1547-01-01T00:00:00Z,592953,,Mexico
Q826566,Riohacha,-72.906944444,11.544166666,1547-01-01T00:00:00Z,167865,,Colombia
Q3753,Cañete,-73.383333333,-37.8,1548-01-01T00:00:00Z,34537,,Chile
Q1359220,Samut Sakhon,100.2775,13.548611111,1548-01-01T00:00:00Z,60103,,Thailand
Q2360416,Asientos,-102.088888888,22.239722222,1548-01-01T00:00:00Z,4517,,Mexico
Q1491,La Paz,-68.133333333,-16.495833333,1548-10-30T00:00:00Z,2867504,,Bolivia
Q944697,Loja,-79.205,-3.990555555,1548-12-18T00:00:00Z,203496,,Ecuador
Q768864,Nonthaburi,100.516666666,13.866666666,1549-01-01T00:00:00Z,255671,,Thailand
Q3292587,Blăjani,26.813166,45.316004,1549-01-01T00:00:00Z,627,,Romania
Q2283736,Zamora,-78.956666666,-4.069166666,1549-10-16T00:00:00Z,17584,,Ecuador
Q51093,Penco,-72.983333333,-36.733333333,1550-01-01T00:00:00Z,47367,,Chile
Q376903,Valledupar,-73.259722222,10.460277777,1550-01-01T00:00:00Z,544134,,Colombia
Q852238,Onitsha,6.783333333,6.166666666,1550-01-01T00:00:00Z,1483000,Africa,Nigeria
Q3058634,Esquipulas,-89.2,14.616666666,1550-01-01T00:00:00Z,56253,,Guatemala
Q4495185,Jalpa de Méndez,-93.062596666,18.1768475,1550-01-01T00:00:00Z,16679,,Mexico
Q1880,Concepción,-73.050277777,-36.826944444,1550-01-01T00:00:00Z,229650,,Chile
Q464763,Augustów,22.966666666,53.85,1550-01-01T00:00:00Z,29494,Europe,Poland
Q222755,Ibagué,-75.200555555,4.437777777,1550-10-24T00:00:00Z,541101,,Colombia
Q168376,Vitoria,-40.297222222,-20.310555555,1551-01-01T00:00:00Z,322869,,Brazil
Q4709,Barquisimeto,-69.346694444,10.067777777,1552-01-01T00:00:00Z,1059092,,Venezuela
Q160687,Valdivia,-73.2459,-39.8142,1552-01-01T00:00:00Z,150048,,Chile
Q3632,Arauco,-73.3175,-37.2463,1552-01-01T00:00:00Z,17597,,Chile
Q201019,Villarrica,-72.216666666,-39.266666666,1552-01-01T00:00:00Z,55478,,Chile
Q3736,Carahue,-73.166666666,-38.7,1552-04-26T00:00:00Z,25696,,Chile
Q44253,Santiago del Estero,-64.266944444,-27.784444444,1553-01-01T00:00:00Z,430280,,Argentina
Q1014248,Sonsonate,-89.727486111,13.720613888,1553-01-01T00:00:00Z,71541,,El Salvador
Q1906311,Zabłudów,23.333333333,53.016666666,1553-01-01T00:00:00Z,2475,,Poland
Q184403,São Bernardo do Campo,-46.565,-23.693888888,1553-01-01T00:00:00Z,810729,,Brazil
Q953449,Porlamar,-63.847777777,10.955555555,1553-04-05T00:00:00Z,120924,,Venezuela
Q1816543,Fresnillo,-102.868229444,23.174894722,1554-01-01T00:00:00Z,230865,,Mexico
Q174,São Paulo,-46.633947222,-23.550394444,1554-02-04T00:00:00Z,11451245,South America,Brazil
Q54880,Valencia,-68.0,10.166666666,1555-04-04T00:00:00Z,1484430,,Venezuela
Q542829,Angra dos Reis,-44.317777777,-23.006944444,1556-01-01T00:00:00Z,167418,,Brazil
Q1794219,Aracruz,-40.272777777,-19.82,1556-01-01T00:00:00Z,103101,,Brazil
Q1853445,Villa de Álvarez,-103.736758611,19.264776388,1556-01-01T00:00:00Z,147496,,Mexico
Q927537,Serra,-40.307777777,-20.128888888,1556-11-16T00:00:00Z,520649,,Brazil
Q1020535,Trujillo,-70.43694,9.36583,1557-01-01T00:00:00Z,38110,,Venezuela
Q1020535,Trujillo,-70.433055555,9.366666666,1557-01-01T00:00:00Z,38110,,Venezuela
Q14773,Macau,113.538055555,22.19,1557-01-01T00:00:00Z,682100,Asia,People's Republic of China
Q838491,Piltene,21.676111111,57.225555555,1557-01-01T00:00:00Z,821,,Latvia
Q54886,Cuenca,-79.004480555,-2.897413888,1557-04-22T00:00:00Z,361524,South America,Ecuador
Q23551,Mérida,-71.133333333,8.583333333,1558-01-01T00:00:00Z,248192,,Venezuela
Q180233,Pori,21.7975,61.486666666,1558-01-01T00:00:00Z,83219,,Finland
Q3927,Astrakhan,48.035,46.35,1558-01-01T00:00:00Z,475629,,Russia
Q51059,Osorno,-73.15,-40.566666666,1558-03-22T00:00:00Z,147460,,Chile
Q486306,Pensacola,-87.217222222,30.421388888,1559-01-01T00:00:00Z,54312,,United States of America
Q4841319,Baeza,-77.89277778,-0.46361111,1559-05-24T00:00:00Z,1691,,Ecuador
Q184409,Guarulhos,-46.533333333,-23.466666666,1560-01-01T00:00:00Z,1324781,,Brazil
Q194332,Mogi das Cruzes,-46.193055555,-23.522777777,1560-01-01T00:00:00Z,450785,,Brazil
Q75537,Oțelu Roșu,22.366666666,45.533333333,1560-01-01T00:00:00Z,8497,,Romania
Q4786593,Archidona,-77.80772,-0.9095,1560-05-01T00:00:00Z,7353,,Ecuador
Q994312,Tena,-77.8159,-0.989,1560-11-25T00:00:00Z,29724,,Ecuador
Q44237,Mendoza,-68.844444444,-32.889722222,1561-01-01T00:00:00Z,114822,,Argentina
Q820235,San Cristóbal,-72.232241666,7.768172222,1561-01-01T00:00:00Z,285872,,Venezuela
Q170688,Santa Cruz de la Sierra,-63.1975,-17.789166666,1561-03-08T00:00:00Z,3151676,,Bolivia
Q44241,San Juan,-68.536388888,-31.5375,1562-01-01T00:00:00Z,471389,,Argentina
Q786758,Azogues,-78.833333333,-2.733333333,1562-10-14T00:00:00Z,35763,,Ecuador
Q30617,Cartago,-83.920441666,9.864211111,1563-01-01T00:00:00Z,22775,,Costa Rica
Q3343022,Nombre de Dios,-104.243423223,23.846794737,1563-01-01T00:00:00Z,5302,,Mexico
Q112813,Durango,-104.654444444,24.022777777,1563-01-01T00:00:00Z,654876,,Mexico
Q840712,Ica,-75.733333333,-14.066666666,1563-06-27T00:00:00Z,282407,,Peru
Q1014554,Macas,-78.116666666,-2.3,1563-08-25T00:00:00Z,22398,,Ecuador
Q514407,Jordanów,19.833333333,49.666666666,1564-01-01T00:00:00Z,5313,,Poland
Q210886,Villahermosa,-92.919416111,17.9878375,1564-07-04T00:00:00Z,340060,,Mexico
Q2319835,Zaklików,22.11667,50.76667,1565-01-01T00:00:00Z,2849,,Poland
Q1467,Cebu City,123.902,10.293,1565-01-01T00:00:00Z,964169,,Philippines
Q487988,St. Augustine,-81.314444444,29.894722222,1565-01-01T00:00:00Z,14329,,United States of America
Q44255,San Miguel de Tucumán,-65.216666666,-26.816666666,1565-01-01T00:00:00Z,605767,,Argentina
Q8678,Rio de Janeiro,-43.205555555,-22.911111111,1565-03-21T00:00:00Z,6211423,South America,Brazil
Q11249733,Jipijapa,-80.578611111,-1.348611111,1565-08-20T00:00:00Z,45382,,Ecuador
Q284529,San Cristóbal Verapaz,-90.47916667,15.365,1565-08-24T00:00:00Z,80613,,Guatemala
Q23800,Valletta,14.5125,35.897777777,1566-01-01T00:00:00Z,6444,,Malta
Q4741622,Atuntaqui,-78.213611111,0.3325,1566-01-01T00:00:00Z,25115,,Ecuador
Q841218,Magé,-43.040833333,-22.652777777,1566-01-01T00:00:00Z,228127,,Brazil
Q777169,Tarnogród,22.742222222,50.360555555,1567-01-01T00:00:00Z,3207,,Poland
Q912235,Toplița,25.3708558,46.9918309,1567-01-01T00:00:00Z,12609,,Romania
Q912235,Toplița,25.3708558,46.9918309,1567-01-01T00:00:00Z,12609,,Austria-Hungary
Q912235,Toplița,25.3708558,46.9918309,1567-01-01T00:00:00Z,12609,,Austrian Empire
Q912235,Toplița,25.3708558,46.9918309,1567-01-01T00:00:00Z,12609,,Kingdom of Hungary
Q912235,Toplița,25.3708558,46.9918309,1567-01-01T00:00:00Z,12609,,Kingdom of Romania
Q912235,Toplița,25.3708558,46.9918309,1567-01-01T00:00:00Z,12609,,First Hungarian Republic
Q912235,Toplița,25.3708558,46.9918309,1567-01-01T00:00:00Z,12609,,Socialist Republic of Romania
Q912235,Toplița,25.3708558,46.9918309,1567-01-01T00:00:00Z,12609,,Romanian People's Republic
Q3744,Castro,-73.7643,-42.4824,1567-01-01T00:00:00Z,33417,,Chile
Q1533,Caracas,-66.933333333,10.5,1567-08-04T00:00:00Z,2245744,,Venezuela
Q739664,Santa Ana,-89.556608333,13.994744444,1569-01-01T00:00:00Z,245421,,El Salvador
Q1044689,Carora,-70.078333333,10.169166666,1569-01-01T00:00:00Z,112600,,Venezuela
Q1922317,Ożarów,21.66658,50.88798,1569-01-01T00:00:00Z,4390,,Poland
Q947414,Gołdap,22.30362,54.30631,1570-01-01T00:00:00Z,13378,,Poland
Q8215260,Pillaro,-78.53333333,-1.16666667,1570-01-01T00:00:00Z,9816,,Ecuador
Q1159273,Danao,123.933333333,10.533333333,1570-01-01T00:00:00Z,156321,,Philippines
Q3773723,Pelileo,-78.54277778,-1.33055556,1570-07-09T00:00:00Z,11403,,Ecuador
Q25096,Cabuyao,121.125,14.275,1571-01-01T00:00:00Z,355330,,Philippines
Q264464,Guaranda,-79.003055555,-1.605555555,1571-05-03T00:00:00Z,30755,,Ecuador
Q1461,Manila,120.977222222,14.595833333,1571-07-04T00:00:00Z,1846513,Asia,Philippines
Q1000333,Huancavelica,-74.971388888,-12.785,1571-08-14T00:00:00Z,49570,,Peru
Q183124,Cochabamba,-66.1570139,-17.3935419,1571-08-25T00:00:00Z,632013,,Bolivia
Q5051163,Catacocha,-79.645277777,-4.052222222,1571-12-14T00:00:00Z,7831,,Ecuador
Q235004,Vigan,120.38694,17.57472,1572-01-01T00:00:00Z,53935,,Philippines
Q552011,Esposende,-8.783333333,41.533333333,1572-01-01T00:00:00Z,34254,,Portugal
Q468782,Huancayo,-75.216666666,-12.066666666,1572-06-11T00:00:00Z,378203,,Peru
Q215080,Machala,-79.966666666,-3.266666666,1573-01-01T00:00:00Z,288072,,Ecuador
Q44210,Córdoba,-64.183333333,-31.416666666,1573-01-01T00:00:00Z,1329604,,Argentina
Q2198509,San Miguel de Salcedo,-78.58333333,-1.05,1573-10-09T00:00:00Z,16751,,Ecuador
Q178725,Niterói,-43.103611111,-22.883333333,1573-11-22T00:00:00Z,496696,,Brazil
Q44244,Santa Fe,-60.7,-31.633333333,1573-11-25T00:00:00Z,405683,,Argentina
Q48403,Amritsar,74.87704,31.626917,1574-01-01T00:00:00Z,1132383,,India
Q793809,Huaraz,-77.533333333,-9.533333333,1574-01-30T00:00:00Z,118836,,Peru
Q200805,Aguascalientes City,-102.296111111,21.880833333,1575-01-01T00:00:00Z,934424,,Mexico
Q3897,Luanda,13.234444444,-8.838333333,1575-01-01T00:00:00Z,2487444,,Angola
Q189128,León de Los Aldama,-101.683333333,21.121944444,1576-01-30T00:00:00Z,1579803,,Mexico
Q6761,Livorno,10.316666666,43.55,1577-01-01T00:00:00Z,152914,,Italy
Q695623,Barinas,-70.216666666,8.633333333,1577-01-01T00:00:00Z,873962,,Venezuela
Q53077,Saltillo,-100.991944444,25.423055555,1577-01-01T00:00:00Z,864431,,Mexico
Q6663163,Lo Miranda,-70.8891,-34.1957,1577-10-25T00:00:00Z,9000,,Chile
Q674320,Cerro de Pasco,-76.2625,-10.686388888,1578-01-01T00:00:00Z,58899,,Peru
Q3238,Tegucigalpa,-87.204008333,14.105713888,1578-01-01T00:00:00Z,1157509,,Honduras
Q319445,Biłgoraj,22.733333333,50.55,1578-01-01T00:00:00Z,25459,,Poland
Q144786,Zakopane,19.951944444,49.299444444,1578-01-01T00:00:00Z,25770,,Poland
Q757401,Atlixco,-98.43613,18.90815,1579-10-02T00:00:00Z,89314,,Mexico
Q145972,Zamość,23.258611111,50.720555555,1580-01-01T00:00:00Z,60148,,Poland
Q995145,Lipsk,23.4,53.733333333,1580-01-01T00:00:00Z,2161,,Poland
Q535534,Hohhot,111.66293,40.81507,1580-01-01T00:00:00Z,3446100,,People's Republic of China
Q3774,Chillán,-72.1033,-36.6067,1580-01-01T00:00:00Z,164270,,Chile
Q176891,Carapicuíba,-46.835833333,-23.522777777,1580-01-01T00:00:00Z,387121,,Brazil
Q1486,Buenos Aires,-58.381944444,-34.599722222,1580-06-21T00:00:00Z,3120612,Americas,Argentina
Q36307,Salta,-65.410555555,-24.788333333,1582-01-01T00:00:00Z,535303,,Argentina
Q3816731,Yaguachi Nuevo,-79.69,-2.12,1583-01-01T00:00:00Z,22972,,Ecuador
Q487439,Oral,51.3725,51.2225,1584-01-01T00:00:00Z,237134,,Kazakhstan
Q323774,Valka,26.021388888,57.775277777,1584-01-01T00:00:00Z,4564,,Latvia
Q5449,Yoshkar-Ola,47.895833333,56.632777777,1584-01-01T00:00:00Z,266675,,Russia
Q379338,Latacunga,-78.616666666,-0.933333333,1584-10-27T00:00:00Z,77267,,Ecuador
Q167436,João Pessoa,-34.88,-7.12,1585-01-01T00:00:00Z,833932,,Brazil
Q23660242,Yumbel,-72.61595,-37.08838,1585-01-01T00:00:00Z,11111,,Chile
Q3426,Voronezh,39.210555555,51.671666666,1586-01-01T00:00:00Z,1051995,Europe,Russia
Q5815,Tyumen,65.533333333,57.15,1586-01-01T00:00:00Z,861100,,Russia
Q894,Samara,50.116666666,53.183333333,1586-01-01T00:00:00Z,1156659,Europe,Russia
Q911,Ufa,55.9475,54.726111111,1586-01-01T00:00:00Z,1128787,,Russia
Q44211,Corrientes,-58.816666666,-27.483333333,1588-01-01T00:00:00Z,352646,,Argentina
Q873405,La Guaira,-66.933055555,10.6,1589-01-01T00:00:00Z,203520,,Venezuela
Q914,Volgograd,44.514722222,48.708611111,1589-01-01T00:00:00Z,1004763,,Russia
Q3292959,Beceni,26.769004,45.3821,1589-01-01T00:00:00Z,392,,Romania
Q590133,La Victoria,-67.333611111,10.227777777,1590-01-01T00:00:00Z,214492,,Venezuela
Q653855,Cieszanów,23.13163,50.24564,1590-01-01T00:00:00Z,1867,,Poland
Q735138,Kėdainiai,23.966666666,55.283333333,1590-01-01T00:00:00Z,23447,,Lithuania
Q1023493,Yaritagua,-69.12833333,10.07527778,1590-01-01T00:00:00Z,140256,,Venezuela
Q1023493,Yaritagua,-69.12611,10.08,1590-01-01T00:00:00Z,140256,,Venezuela
Q875070,Dagupan,120.334,16.043,1590-01-01T00:00:00Z,174302,,Philippines
Q5332,Saratov,46.0,51.533333333,1590-01-01T00:00:00Z,838042,,Russia
Q911009,Tomaszów Lubelski,23.416666666,50.45,1590-01-01T00:00:00Z,18567,,Poland
Q44236,La Rioja,-66.855833333,-29.413055555,1591-05-20T00:00:00Z,180995,,Argentina
Q733005,Guanare,-69.748888888,9.043611111,1591-11-03T00:00:00Z,192644,,Venezuela
Q200713,Aurangabad,75.32,19.88,1592-01-01T00:00:00Z,1175116,,India
Q1361,Hyderabad,78.474722222,17.361666666,1592-01-01T00:00:00Z,9305000,,India
Q204271,San Luis Potosí,-100.975,22.149722222,1592-01-01T00:00:00Z,772828,,Mexico
Q28516,Tarnobrzeg,21.683333333,50.583333333,1593-01-01T00:00:00Z,44901,,Poland
Q225641,Mombasa,39.666666666,-4.05,1593-01-01T00:00:00Z,1208333,,Kenya
Q44217,San Salvador de Jujuy,-65.299444444,-24.185555555,1593-01-01T00:00:00Z,321789,,Argentina
Q1946056,Zwierzyniec,22.966666666,50.616666666,1593-01-01T00:00:00Z,2918,,Poland
Q1983875,Aghjabadi,47.4502,40.048938888,1593-01-01T00:00:00Z,136000,,Azerbaijan
Q271393,Jaboatão dos Guararapes,-35.015,-8.112777777,1593-01-01T00:00:00Z,643759,,Brazil
Q196486,Stary Oskol,37.835,51.298055555,1593-01-01T00:00:00Z,221676,,Russia
Q44243,San Luis,-66.339166666,-33.299444444,1594-01-01T00:00:00Z,169947,,Argentina
Q183002,Surgut,73.433333333,61.25,1594-01-01T00:00:00Z,395900,,Russia
Q992162,Los Reyes de Salgado,-102.46666667,19.58333333,1594-05-12T00:00:00Z,69723,,Mexico
Q148121,Zaruma,-79.6,-3.683333333,1595-12-08T00:00:00Z,10005,,Ecuador
Q3323,Belgorod,36.6,50.6,1596-01-01T00:00:00Z,339978,Europe,Russia
Q179585,Ploiești,26.0225,44.941111111,1596-01-01T00:00:00Z,180539,,Romania
Q81033,Monterrey,-100.308611111,25.671388888,1596-09-20T00:00:00Z,1142952,,Mexico
Q1944489,San Pedro Garza García,-100.37029,25.657347,1596-09-20T00:00:00Z,122659,,Mexico
Q730929,Ostrowiec Świętokrzyski,21.4,50.933333333,1597-01-01T00:00:00Z,64796,,Poland
Q914055,San Nicolás de los Garza,-100.28333333,25.75,1597-02-05T00:00:00Z,443273,,Mexico
Q588,Katowice,19.0,50.25,1598-01-01T00:00:00Z,279200,Europe,Poland
Q1892048,Mapimí,-103.84777778,25.83305556,1598-01-01T00:00:00Z,5623,,Mexico
Q503818,Socorro,-106.899444444,34.061666666,1598-01-01T00:00:00Z,8707,,United States of America
Q1889017,Mandaue,123.933333333,10.333333333,1599-01-01T00:00:00Z,364116,,Philippines
Q315851,Carcar,123.633333333,10.116666666,1599-01-01T00:00:00Z,136453,,Philippines
Q82838,Freudenstadt,8.411111111,48.463333333,1599-01-01T00:00:00Z,24301,,Germany
Q131620,Natal,-35.208888888,-5.795,1599-01-01T00:00:00Z,751300,,Brazil
Q27176,Al Bahah,41.46767,20.01288,1600-01-01T00:00:00Z,95089,,Saudi Arabia
Q4156781,Dedyukhin,56.689444444,59.45,1600-01-01T00:00:00Z,4826,,Russian Empire
Q7419863,Santa Rosa,-79.96166667,-3.45222222,1600-01-01T00:00:00Z,56842,,Ecuador
Q17182198,Nucli de Mas de Bondia,1.19107222,41.60531389,1600-01-01T00:00:00Z,50,,Spain
Q422197,Kattakurgan,66.265555555,39.895833333,1601-01-01T00:00:00Z,58950,,Uzbekistan
Q535551,Joachimsthal,13.75,52.966666666,1601-01-01T00:00:00Z,3446,,Germany
Q167974,San Cristóbal,-72.216666666,7.816666666,1602-01-01T00:00:00Z,128590,,Venezuela
Q279009,David,-82.424263888,8.438180555,1602-01-01T00:00:00Z,82907,,Panama
Q885996,Bluefields,-83.764911111,12.013125,1602-01-01T00:00:00Z,45547,,Nicaragua
Q3691,Calbuco,-73.1275,-41.7712,1603-01-01T00:00:00Z,15903,,Chile
Q107398,Akranes,-22.1,64.316666666,1604-01-01T00:00:00Z,7997,,Iceland
Q2022508,La Unión,-76.100555555,4.533055555,1604-01-01T00:00:00Z,40339,,Colombia
Q976,Tomsk,84.952222222,56.488611111,1604-01-01T00:00:00Z,575352,,Russia
Q778941,General Escobedo,-100.326666666,25.808333333,1604-04-25T00:00:00Z,299364,,Mexico
Q2200,Tuguegarao,121.730277777,17.613333333,1604-05-09T00:00:00Z,166334,,Philippines
Q47048,Oulu,25.471944444,65.014166666,1605-01-01T00:00:00Z,214814,,Finland
Q946384,Ibarra,-78.13,0.362778,1606-09-28T00:00:00Z,157941,,Ecuador
Q125080,Vaasa,21.615277777,63.095833333,1606-10-02T00:00:00Z,69036,,Finland
Q35246,Oruro,-67.116666666,-17.966666666,1606-11-01T00:00:00Z,264683,,Bolivia
Q200663,Faridabad,77.3,28.416666666,1607-01-01T00:00:00Z,1404653,,India
Q43421,Richmond,-77.436666666,37.540833333,1607-01-01T00:00:00Z,226610,,United States of America
Q1354,Dhaka,90.394444444,23.728888888,1608-01-01T00:00:00Z,16800000,,Bangladesh
Q1701,Ligao,123.516666666,13.216666666,1608-01-01T00:00:00Z,118096,,Philippines
Q2145,Quebec City,-71.224167,46.816111,1608-07-03T00:00:00Z,549459,,Canada
Q616624,Brigantine,-74.365,39.41,1608-09-02T00:00:00Z,7716,,United States of America
Q26339,Jersey City,-74.06,40.71,1609-01-01T00:00:00Z,292449,,United States of America
Q285488,Iligan,124.25,8.233333333,1609-01-01T00:00:00Z,363115,,Philippines
Q1087067,Wildwood,-74.82,38.988888888,1609-01-01T00:00:00Z,5157,,United States of America
Q498256,Bauska,24.1875,56.406666666,1609-01-01T00:00:00Z,9811,,Latvia
Q2571376,San Ignacio,-57.028333333,-26.886666666,1609-12-29T00:00:00Z,50468,,Paraguay
Q492552,Namangan,71.6725,40.995277777,1610-01-01T00:00:00Z,626120,,Uzbekistan
Q1001522,Navojoa,-109.445555555,27.081666666,1610-01-01T00:00:00Z,120926,,Mexico
Q342043,Hampton,-76.360126,37.034946,1610-01-01T00:00:00Z,137148,,United States of America
Q38555,Santa Fe,-105.966666666,35.666666666,1610-01-01T00:00:00Z,87505,,United States of America
Q957653,Itu,-47.299166666,-23.264166666,1610-01-01T00:00:00Z,167095,,Brazil
Q138548,Cape May,-74.921388888,38.933333333,1611-01-01T00:00:00Z,2768,,United States of America
Q11854,Rajkot,70.798363888,22.296908333,1612-01-01T00:00:00Z,2043000,,India
Q638260,Neiva,-75.2875,2.9275,1612-05-24T00:00:00Z,380019,,Colombia
Q28441,São Luís,-44.302777777,-2.53,1612-09-08T00:00:00Z,1037775,,Brazil
Q3001,Paramaribo,-55.166666666,5.866666666,1613-01-01T00:00:00Z,223757,,Suriname
Q242995,Jhansi,78.56962,25.44862,1613-01-01T00:00:00Z,507000,,India
Q320487,Bragança,-46.772777777,-1.062777777,1613-01-01T00:00:00Z,123082,,Brazil
Q492538,Bergen auf Rügen,13.433333333,54.416666666,1613-01-01T00:00:00Z,13689,,Germany
Q19689,Tirana,19.817777777,41.328888888,1614-01-01T00:00:00Z,418495,,Albania
Q47138,Encarnación,-55.866666666,-27.333333333,1615-01-01T00:00:00Z,69868,,Paraguay
Q735025,Cabo Frio,-42.018888888,-22.878888888,1615-01-01T00:00:00Z,221987,,Brazil
Q257561,Wisła,18.858888888,49.656111111,1615-01-01T00:00:00Z,10887,,Poland
Q1002560,Comarapa,-64.529722222,-17.913611111,1615-06-11T00:00:00Z,15919,,Bolivia
Q2318528,Baradero,-59.516666666,-33.8,1615-07-25T00:00:00Z,28537,,Argentina
Q12829733,Belém,-48.503888888,-1.455833333,1616-01-01T00:00:00Z,1303389,South America,Brazil
Q983896,Alwernia,19.53953,50.06056,1616-01-01T00:00:00Z,3306,,Poland
Q983896,Alwernia,19.516666666,50.066666666,1616-01-01T00:00:00Z,3306,,Poland
Q867437,Ulanów,22.26362,50.49031,1616-01-01T00:00:00Z,1406,,Poland
Q867437,Ulanów,22.266666666,50.5,1616-01-01T00:00:00Z,1406,,Poland
Q1696,Legazpi,123.733333333,13.133333333,1616-01-01T00:00:00Z,209533,,Philippines
Q856938,Biddeford,-70.446111111,43.474166666,1616-01-01T00:00:00Z,22552,,United States of America
Q214248,Benguela,13.416666666,-12.55,1617-01-01T00:00:00Z,561775,,Angola
Q389860,Kalwaria Zebrzydowska,19.683333333,49.866666666,1617-01-01T00:00:00Z,4418,,Poland
Q94758,Apatzingán de la Constitución,-102.350833333,19.088611111,1617-01-01T00:00:00Z,128250,,Mexico
Q377277,Glückstadt,9.421944444,53.791666666,1617-01-01T00:00:00Z,10885,,Germany
Q132395,Byala,25.738468,43.460242,1618-01-01T00:00:00Z,8674,,Bulgaria
Q989492,Córdoba,-96.934722222,18.894166666,1618-04-27T00:00:00Z,204721,,Mexico
Q894059,Borongan,125.436111111,11.609444444,1619-09-08T00:00:00Z,71961,,Philippines
Q333476,Ségou,-6.266666666,13.45,1620-01-01T00:00:00Z,133501,,Mali
Q333476,Ségou,-6.2157,13.4317,1620-01-01T00:00:00Z,133501,,Mali
Q1023631,Sanare,-69.793055555,9.782222222,1620-01-01T00:00:00Z,48764,,Venezuela
Q812117,Baybay,124.8,10.683333333,1620-01-01T00:00:00Z,111848,,Philippines
Q1021748,Quíbor,-69.577777777,9.928055555,1620-01-01T00:00:00Z,110536,,Venezuela
Q338059,Acarigua,-69.201944444,9.559722222,1620-09-29T00:00:00Z,195637,,Venezuela
Q997084,Turmero,-67.475277777,10.228333333,1620-11-27T00:00:00Z,254880,,Venezuela
Q215277,Jaffna,80.016666666,9.664722222,1621-01-01T00:00:00Z,88138,,Sri Lanka
Q25287,Gothenburg,11.9675,57.7075,1621-01-01T00:00:00Z,607882,,Sweden
Q21065,Friedrichstadt,9.0925,54.376980555,1621-01-01T00:00:00Z,2555,,Germany
Q996478,Guarenas,-66.538333333,10.473888888,1621-02-14T00:00:00Z,208663,,Venezuela
Q685509,Santiago de Veraguas,-80.971128,8.105714,1621-07-25T00:00:00Z,88997,,Panama
Q243766,Bucaramanga,-73.116111111,7.118611111,1622-12-22T00:00:00Z,614860,,Colombia
Q40209,Long Beach,-73.66775,40.58605,1623-01-01T00:00:00Z,35029,,United States of America
Q749283,San Juan,121.03,14.604,1623-01-01T00:00:00Z,126347,,Philippines
Q48215,Dover,-70.875,43.195277777,1623-01-01T00:00:00Z,32741,,United States of America
Q49156,Gloucester,-70.666666666,42.616666666,1623-01-01T00:00:00Z,29729,,United States of America
Q54195,Weymouth,-70.940277777,42.220833333,1623-01-01T00:00:00Z,57437,,United States of America
Q1623,Valenzuela,120.983333333,14.7,1623-11-12T00:00:00Z,714978,,Philippines
Q140631,Tainan,120.183333333,22.983333333,1624-01-01T00:00:00Z,1874686,,Taiwan
Q1514901,Villa Soriano,-58.322777777,-33.399444444,1624-01-01T00:00:00Z,1300,,Uruguay
Q1514901,Villa Soriano,-58.321666666,-33.398055555,1624-01-01T00:00:00Z,1300,,Uruguay
Q1552562,Guacara,-67.883333333,10.233333333,1624-01-01T00:00:00Z,200212,,Venezuela
